,BUSSTOP_ID,BUSSTOP_NAME,NAME_E,LONGITUDE,LATITUDE,ARS_ID,NEXT_BUSSTOP
0,2513,동원촌,Dongwonchon,126.82839444,35.221225,5396,비아동주민센터(앞)
1,2534,첨단1동행정복지센터,Cheomdan 1(il)-dong Administration Welfare Center,126.84211,35.218626,5409,광주교통방송/광주디자인센터
2,196,남계(장성),Namgye (Jangseong),126.82940556,35.26986667,6245,매화동(장성)
3,3447,싸이클경기장,Cycle Stadium,126.71840833,35.04589722,6063,정렬사사거리
4,3026,산수무등파크,Sansu Mudeung Park Apt.,126.9399001,35.156992,1037,신양파크호텔
5,3400,구야촌,Guyachon,126.82324003,35.13846577,5204,신광
6,3498,노동,Nodong,126.746551,35.175755,5222,박호1리
7,2217,월성,Wolseong,126.8024,35.06936944,3048,학촌
8,1666,평동초교,Pyeongdong Elementary School,126.75603305,35.12602862,5490,옥동
9,2778,북성중,Buksung Middle School,126.90171561,35.15855774,4493,광주일고
10,3897,송화마을3단지,Songhwa Village Apt. Complex 3,126.90459967,35.11042154,3278,진월저수지(동)
11,71,동원촌,Dongwonchon,126.82835,35.22115,5397,신동아아파트
12,808,송정공원역,Songjeong Park Station,126.79965699,35.14372061,5254,영광통
13,2272,북초교,Buk Elemetary School,126.914834,35.244393,4035,효령노인복지타운
14,2736,첨단대우아파트,Cheomdan Daewoo Apt.,126.831417,35.220006,5413,첨단도서관
15,366,동부소방서,Dongbu Fire Station,126.91333831,35.15523084,1118,대인광장(서)
16,2760,기독병원,Christian Hospital,126.91392222,35.13689444,3172,학강초교
17,2955,풍암사거리(동),Pungam Sageori (East),126.86138927,35.1224794,2260,공구단지
18,3853,효령동,Hyoyeong-dong,126.91648333,35.2424519,4604,영락공원2단지
19,3093,광산소방서입구,Gwangsan Fire Station Entrance,126.79499,35.185215,5573,정우화학
20,668,사평초교,Sapyeong Elementary School,127.09331667,35.00778889,6283,사평중
21,1620,삼암,Samam,126.6791901,35.162644,5613,삼도삼거리
22,532,문화중,Munhwa Middle School,126.92363889,35.17759722,4418,현대아파트
23,3094,세방전지,Global Battery Co. Ltd,126.79510278,35.188375,5525,백제화학
24,257,신덕마을,Sindeok Village,126.786499,35.134893,5162,신동사거리
25,1996,노대,Nodae,126.90505278,35.09906389,3234,빛고을노인건강타운
26,3464,농업기술원,Agricultural Research and Extension Services,126.82975,35.02319722,6039,매화(신흥)
27,1884,단지삼거리,Danji Samgeori,126.925496,35.248936,4019,단지마을
28,2168,대산,Daesan  ,126.68146725,35.12879118,5630,신광(삼도)
29,390,대인광장(북),Daein Plaza (North),126.91176389,35.15704167,4517,롯데백화점(북)
30,2197,대촌한일베라체,Daechon Hanil Verace Apt.,126.83116077,35.08221172,3012,개동
31,2332,도래,Dorae,126.820986,34.997661,6028,다도초교
32,2166,도야,Doya,126.68921111,35.12569722,5653,회룡(광산)
33,347,동강대후문,Dongkang College Back Gate,126.92485278,35.17044722,4162,말바우시장(서)
34,360,동림삼익아파트,Dongnim Samik Apt.,126.86430278,35.17731389,4589,
35,2360,동명고,Dongmyoung High School,126.7391863,35.15504605,5225,서봉마을
36,370,동산아파트,Dongsan Apt.,126.93663333,35.15146389,1058,동산초교옆
37,3395,동촌,Dongchon,126.68653333,35.12714722,5134,신광(삼도)
38,3312,두동,Dudong,126.76178889,35.21550556,5331,용동(임곡)
39,395,두암초교,Duam Elementary School,126.93253611,35.16931667,4190,덕산아파트
40,1718,마산(서창),Masan (Seochang),126.83115278,35.12758056,2105,동하
41,142,그린파크,Green Park Apt.,126.89532566,35.15598713,2035,서림초교입구
42,4157,앵남2구,Aengnam District 2,126.905647,35.048113,6602,앵남역
43,3192,국립아시아문화전당(구.도청),Asia Culture Center,126.91785,35.148679,1123,금남로4가역
44,29,계수,Gyesu,126.85778056,35.16266111,2174,시청
45,124,구룡(본량),Guryong (Bollyang),126.68691111,35.20683056,5033,동림마을
46,188,5.18자유공원,May 18th Liberty Park,126.841176,35.1481301,2210,김대중컨벤션센터
47,252,건국동행정복지센터,Geonguk-dong Welfare Center,126.88088728,35.22226093,4005,호남권역재활병원
48,1049,운남삼성아파트,Unnam Samsung Apt.,126.81718889,35.17422778,5306,광산구노인복지회관
49,3467,수북사거리,Subuk 4-Way Junc,126.930313,35.302083,6175,수북면사무소
50,1295,쌍촌시영아파트,Ssangchon Siyeong Apt.,126.86866111,35.14496111,2085,서광주우체국
51,2321,광주어망,Kwangju Fishing Net,126.83700278,35.03487222,6006,광남고
52,1852,나산리,Nasanli,126.93501111,35.29386111,6167,대흥리
53,4158,앵남2구,Aengnam District 2,126.905535,35.048077,6603,화남마을
54,3158,강의리,Gangui-li,126.90295268,35.26608173,6109,갈전
55,96,4.19기념관,April 19th Memorial Hall,126.91763889,35.16208889,1006,순복음교회
56,107,광천초교,Gwangcheon Elementary School,126.889058,35.158998,2034,현대자동차
57,155,금남로5가역,Geumnamno 5(o)-ga Station,126.911605,35.152818,1113,광주일고
58,215,광암교입구,Gwangamgyo Bridge Entrance,126.876691,35.1714401,4437,동림동천마을6단지
59,277,대광여고,Daegwang Girls' High School,126.89747173,35.12684766,3210,진월대주아파트
60,1694,나주금성고,Naju Geumseong High School,126.71594444,35.03906667,6051,정렬사사거리
61,2032,남면보건지소,Nammyeon Branch Community Health Center,126.803325,35.23752778,6195,승가입구
62,226,내남,Naenam,126.93131667,35.08901944,1078,법림사
63,1997,녹서,Nokseo,126.665292,35.200536,6223,화산(장성)
64,2703,농협공판장,Nonghyup Joint Market,126.89968611,35.15236111,3191,닭전머리
65,1834,담양월곡,Damyang Wolgok,126.95512222,35.23808056,6077,원유동
66,1660,대산삼거리,Daesan Samgeori,126.68011725,35.12873478,5125,송학교회앞
67,296,대인광장(서),Daein Plaza (West),126.91142059,35.15596052,4518,동부소방서
68,2262,대치,Daechi,126.88731667,35.27651111,6112,대전파출소(서)
69,2723,도림,Dorim,126.70096389,35.16655,5130,삼도초교
70,343,도현,Dohyeon,126.79581944,35.21284167,5510,하남철강
71,2959,동광주진입로,East Gwangju IC Access Road,126.9313568,35.18274575,4221,농산물공판장
72,2008,동림마을,Dongnim Village,126.68904722,35.20970833,0   ,동림마을
73,3274,김대중컨벤션센터,Kimdaejung Convention Center,126.83907404,35.14705788,2212,5.18자유공원
74,1699,나주농협송현지점,Naju Nonghyup Songhyun Branch,126.72296389,35.050625,6053,나주북초교
75,208,남동,Nam-dong,126.68214444,35.17956111,5035,용호(광산구)
76,218,신흥목재포장,Sinheung Wood Package,126.80959722,35.21638333,5502,도천교
77,397,율곡초교,Yulgok Elementary School,126.93513056,35.16101944,4193,호남맨션
78,908,전남대공과대학,Chonnam National University of Technology,126.91222548,35.17841067,4410,성산맨션
79,3901,망향동산길,Manghyangdongsan Road,126.93132864,35.20999042,4266,변전소
80,744,서광주한전,Seogwangju KEPCO,126.89281111,35.150875,2058,돌고개역(동)
81,1739,남선산업,Namsun Industry,126.88488056,35.10765833,3150,송하삼익아파트
82,2172,용강입구,Yonggang Entrance,126.73737357,35.1245076,5476,축산시험장
83,1703,노안남초교,Noan nam Elementary School,126.75186389,35.06637222,6020,쌈지공원
84,751,서구청,Seo-gu Office,126.888923,35.151892,2059,서광주한전
85,3776,옥동차량기지,Ok-dong Garage,126.75961993,35.12094738,5695,평동파출소
86,1401,평동우체국,Pyeong-dong Post Office,126.76125,35.12453056,5488,평동역(동)
87,2177,평동우체국,Pyeong-dong Post Office,126.76148611,35.12457691,5489,옥동
88,1288,중흥시장,Jungheung Market,126.9102273,35.16072865,4537,대인광장(북)
89,98,광주학생운동기념탑,Monument for Gwangju Student Movement,126.90917222,35.15280146,1110,롯데백화점
90,2037,서태마을입구,Setaemaeul Entrance,126.82151389,35.23721111,6202,서태
91,323,중앙교회,Jungang Church,126.83018611,35.27383333,6261,남계(장성)
92,1406,평촌,Pyeongchon,126.83865278,35.2653,6270,진원면사무소
93,649,남면보건지소,Nammyeon Branch Community Health Center,126.80331667,35.23746667,6196,분향
94,316,광주시립미술관하정웅미술관,Gwangju Museum of Art and Ha Jung-woong Museum of Art,126.8884048,35.15374342,2049,담배인삼공사
95,1457,일동초교,Ildong Elementary School,126.89414971,35.2068883,4485,일동중
96,378,동신대한방병원,Dongshin University Oriental Hospital,126.896205,35.150164,3196,월산초교
97,806,광천E편한세상,Gwangcheon e-Pyeonhan Sesang Apt.,126.8761,35.16578611,2180,기아차정문
98,3766,광주지방경찰청,Gwangju Metropolitan Police Agency,126.79898973,35.15390862,5694,소촌라인2차아파트
99,3815,수완중흥S-클래스 2차,Suwan Jungheung S-Class 2nd Apt.,126.813456,35.183122,5709,흑석사거리(동)
100,3849,산정초교,Sanjeong Elementary School,126.80142883,35.1726753,5715,하남도시공사아파트
101,2182,서창동주민센터,Seochang-dong Community Service Center,126.829717,35.1143901,2128,동하
102,1764,서창치안센터,Seochang Police Patrol & Services Center,126.820966,35.107397,2136,용두입구
103,3293,석교삼거리,Seokgyo Samgeori,126.8147248,35.09339882,3028,구룡(대촌)
104,3165,선평선창마을입구,Seonpyeong Seonchangmaeul Entrance,126.778316,35.246215,6203,장성백운
105,1696,천주교사거리,126.71653056,35.03578056,6061,나주경찰서,
106,3088,세방전지,Global Battery Co. Ltd,126.79491944,35.18835,5524,정우화학
107,3768,소촌남계길,Sochon Namgye-gil,126.80492203,35.15177514,5690,소촌라인2차아파트
108,511,소태역,Sotae Station,126.93203362,35.12393113,1095,지원2동주민센터
109,800,솔뫼타운,Solmeo Town Apt.,126.87158889,35.15757222,2273,해태아파트
110,802,송림주택,Songnim Jutaek Apt. ,126.91814521,35.13103202,3088,방림삼거리
111,1635,대봉,Daebong,126.6608022,35.14241344,5599,상무자동차학원
112,1522,화순군선거관리위원회,Hwasun-gun Election Commission,126.98000556,35.063325,6381,화순공공도서관입구
113,1691,성북아파트,Naju Police Station,126.72059309,35.035831,6049,천주교사거리
114,1416,풍암저수지,Pungam Reservoir,126.8696067,35.12587402,2265,마재우체국
115,608,본량초교,Bollyang Elementary School,126.72300278,35.17925278,5050,황산
116,2085,종산제입구,Jongsanje Entrance,126.74006667,35.24460278,5387,종산
117,2253,고성리,Goseong-li,126.92376667,35.29493333,6160,수북면사무소
118,382,동암,Dongam,127.05050278,35.02916667,6313,천동(화순)
119,254,농장다리,Nongjangdari Overpass,126.92692778,35.15114722,1051,법원입구
120,1450,계수초교,Gyesu Elementary School,126.845536,35.155079,2230,상무대우아파트
121,830,수창초교후문,Soochang Elementary School Back Gate,126.90888458,35.15699824,4523,유동사거리
122,1116,월정,Woljeong ,126.86383208,35.24446667,6256,초동
123,1396,풍암정,Pungamjeong Pavilion,126.98715038,35.16021082,4329,충장사(남)
124,2181,동하,Dongha,126.83296667,35.12163611,2103,마산(서창)
125,76,자연과학고,Natural Science High School,126.9141228,35.18701256,4367,용봉중
126,1581,중소기업진흥공단호남연수원,SBC Honam Training Institute,126.93545488,35.20246536,4313,용호(북구)
127,639,서림초교입구,Seorim Elementary School Entrance,126.900038,35.160597,4585,그린파크
128,19,건강협회(남),Association of Health Promotion (South),126.888924,35.147873,2321,화정주공
129,3652,광주농수산물유통센터(북),Agricultural Products Distribution Center (North),126.820281,35.185051,5742,수완모아엘가
130,3794,고령친화종합체험관,Senior Technology Complex,126.89512878,35.09730155,3264,덕남
131,3355,노동,Nodong,126.7466901,35.175739,5223,외등
132,1866,대치,Daechi,126.88727778,35.27655833,6111,종점
133,352,동구청,Dong-gu Office,126.92178889,35.14741111,1044,전남대병원오거리
134,1659,대산,Daesan  ,126.6814817,35.12888856,5124,대산삼거리
135,3896,도천저수지,Docheon Reservoir,126.82774014,35.21174012,5765,응암공원
136,3903,닭뫼,Dakmoe,127.00792586,35.1821165,4477,소쇄원
137,2718,덕흥삼거리,Deokheung Samgeori,126.83816135,35.16740169,2350,화니미지로
138,472,말바우시장(동),Malbau Market (East),126.92483439,35.17238829,4165,무등도서관
139,3116,상선,Sangseon,126.780478,35.11787,5471,공군부대
140,818,송정한전,Songjeong KEPCO,126.788724,35.149305,5255,가천아파트
141,1503,송정호반아파트,Songjeong Hoban Apt.,126.78969941,35.12699506,5013,공군부대후문
142,2950,광주은행양산동지점,Kwangju Bank Yangsan-dong Branch,126.87558314,35.21108302,4061,신흥택시
143,959,연진회미술원,Yeonjinhoe Academy Of Art,126.938232,35.132235,1100,홍림교
144,1019,오정초교입구,Ojung Elementary School Entrance,126.91167011,35.18394516,4359,오치한전옆
145,1677,용봉마을,Yongbong Village,126.76979444,35.07411667,5018,용봉입구
146,2690,용연동,Yongyeon-dong,126.962321,35.094001,1104,용연정수장
147,53,광주광역시교육청(광덕고),Gwangju Metropolitan Office of Education,126.88065154,35.14762879,2288,화정사거리
148,335,도촌교,Dochon Gyo Birdge,126.811145,35.217955,5509,비아중흥아파트
149,144,장암마을,Jangam Village,126.8250273,35.14188786,5216,서창입구
150,1191,전남대병원.남광주시장,Chonnam National University Hospital.Namgwangju Market,126.92149,35.140992,1146,남광주역
151,1232,서남동행정복지센터,Seonam-dong Welfare Center,126.92378056,35.14486111,1049,조선대
152,2123,죽산,Juksan,126.729344,35.168008,5145,운평
153,1289,중흥시장,Jungheung Market,126.9104456,35.16099298,4538,광주역(동)
154,1323,진성아파트,Jinseong Apt.,126.872925,35.16604167,2202,삼우아파트
155,2232,창평고입구,Changpyeong High School Entrance,127.014602,35.237555,6190,보평리
156,1893,태령,Taeryeong,126.92774444,35.25101389,4120,신평
157,2026,보화촌,Bohwachon,126.76331389,35.20603056,5338,고룡정보산업학교
158,2028,본량학생야영장,Bollyang Student Camping Site,126.682098,35.195885,5055,신촌(본량)
159,83,동초교,Dong Elementary School,126.95105,35.20635556,4278,죽곡(북)
160,65,풍영정입구,Pungyeongcheong entrance,126.83671111,35.17746667,5178,광신대교
161,278,대광여고,Daegwang Girls' High School,126.89785,35.12663933,3209,백운광장
162,2006,덕남,Deongnam,126.89889444,35.09395556,3237,고령친화종합체험관
163,420,어룡초교,Eoryong Elementary School,126.79238056,35.15617222,5258,소촌스위트밸리
164,90,광주역(동),Gwangju Station (East),126.90974301,35.16395818,4529,순복음교회
165,3633,영천,Yeongcheon,126.75628724,35.13793681,5670,라정시내버스
166,1720,서창동주민센터,Seochang-dong Community Service Center,126.82957222,35.11430833,2127,절골입구(서)
167,3854,효령동,Hyoyeong-dong,126.9167129,35.2421639,4605,영락공원입구
168,409,두암라인동산아파트,Duam Line Dongsan Apt.,126.93563333,35.17156944,4172,대주빌라
169,1951,매화동(나주),Maehwadong(Naju),126.828486,35.019726,6041,식산
170,2887,서영대,Seoyeong university,126.87067912,35.17567603,4427,동림우미린아파트
171,1787,승촌주택단지,Seungchon Housing Area,126.78651667,35.05800556,3037,승촌
172,2978,지산유원지입구,Jisan Recreation Area Entrance,126.944466,35.149165,1071,지산유원지
173,899,신가사거리,Singa Sageori,126.83099722,35.18003056,5182,극락역입구
174,2758,수피아여고,Speer Girls' High School,126.91065,35.13504444,3100,기독병원
175,73,광주고/4.19역사관,GwangJu High School/4.19 History Hall,126.92068602,35.15818377,1004,계림사거리
176,880,신암마을,Sinam Village,126.88455441,35.12147207,2248,풍암금호아파트
177,16,계소리1구,Gyesori District 1,126.95864444,35.051625,6336,계소리3구
178,3029,계림초교후문,Gyerim Elementary School Back Gate,126.92521,35.16031,1012,4.19기념관
179,2107,화순제일중,Hwasun Jeil Middle School,126.97641944,35.05436111,6400,화순중(북)
180,1901,담양월곡,Damyang Wolgok,126.95455833,35.23895,6078,노안동
181,3938,보광사,Bogwangsa Temple,126.93706601,35.19215845,4607,도선사
182,2060,연화공장,Yeonhwa Factory,126.96091944,35.03476389,6365,연양리2구
183,2953,대인광장(서),Daein Plaza (West),126.91092691,35.15638361,4519,수창초교후문
184,3489,하남홈플러스,Hanam Home Plus,126.804347,35.177614,5560,하남중앙초교입구
185,3499,박호1리,Bakho 1(il)-ri,126.745135,35.173973,5233,박뫼
186,3416,상무해광한신아파트,Sangmu Haegwang Hanshin Apt.,126.84283287,35.15370262,2323,상무금호아파트
187,3441,상무지구,Sangmu District,126.839031,35.156507,,
188,3496,화순터널,Hwasun Tunnel,126.96113056,35.07535556,6409,이십곡리
189,2072,월정,Woljeong ,126.86372222,35.24446111,6257,고내입구
190,579,법원,District Court,126.933181,35.149933,1055,농장다리
191,1308,산음,Saneum,126.73723889,35.18729722,5060,신당
192,2756,석산고,Seoksan High School,126.90853611,35.13603333,3099,서광중
193,3936,대진운수,Daejin Transportation Company,126.89367932,35.23963533,4091,용전입구
194,3940,용전입구,Yongjeon Entrance,126.89531801,35.24057876,4619,전통공예문화학교
195,1113,월산초교,Wolsan Elementary School,126.89755,35.14707778,3202,무진중
196,3142,하칠석.고싸움전수관,Hachilseok / Gossaum Training Center,126.83513754,35.06996674,3068,어전
197,2776,발산교(남),Balsangyo Bridge (South),126.894939,35.158585,2158,발산
198,3372,송곡,Songgok,126.652144,35.226362,6237,삼서초교
199,3166,선평선창마을입구,Seonpyeong Seonchangmaeul Entrance,126.77847778,35.24619167,6204,선창
200,3195,학2마을아파트,Hak 2(i) Village Apt.,126.92876111,35.13159444,1157,학동평화맨션
201,766,서산초교,Seosan Elementary School,126.90524167,35.18860278,4370,오치한전
202,828,수성,Suseong,126.675138,35.184491,5063,옥산
203,1081,원지리,Wonji-li,126.95718056,35.00851389,6300,천덕리
204,2304,충장사(북),Chungjangsa Shrine (North),126.98023056,35.16195833,4323,금곡
205,2345,중앙교회,Jungang Church,126.830357,35.273815,6260,진원면사무소
206,2051,신봉정,Sinbongjeong,126.7648001,35.190757,5354,신등
207,1878,북초교,Buk Elemetary School,126.914817,35.244187,4036,수곡
208,222,호남샤니,Honam Shany,126.80216667,35.19659444,5576,화천기공
209,1003,용봉한화꿈에그린,Yongbong Hanwha Dream & Green Apt.,126.90430546,35.18105076,4390,도로교통공단 대신파크
210,2910,안청,Ancheong,126.80556111,35.21681111,5530,안청농협
211,2958,동광주진입로,East Gwangju IC Access Road,126.93097298,35.18274707,4220,광주병원
212,93,광주역육교,Gwangju Station Overpass,126.91078056,35.16683056,4540,해광맨션
213,3919,수완지구,Suwan District,126.83269161,35.19918039,5697,수완보건지소
214,3928,신남마을,Shinnam Village,126.88860556,35.27188611,6419,시목
215,3929,신남마을,Shinnam Village,126.88877424,35.27190282,6420,한재중
216,3909,큰별초교,Keunbyeol Elementary School,126.82121513,35.18305996,5180,광주농수산물유통센터(서)
217,2574,과기원,Gwangju Institute of Science and Technology,126.84098697,35.22469831,5392,쌍암공원
218,615,조봉초교,Jobong Elementary School,126.911688,35.122842,3135,봉선2동주민센터
219,2876,농협운천지점,Nonghyup Uncheon Branch,126.848689,35.14840116,2214,한국수자원공사
220,948,일가정양립지원본부,work-family Balance Assisttance Center,126.840556,35.151455,2234,상무중흥아파트
221,2729,선암,Seonam,126.77291821,35.15053815,5242,매방골
222,3148,교산,Gyosan,126.98460833,35.22506111,6073,고서중
223,3487,삼서우체국,Samseo Post Office,126.64657758,35.2297066,6233,삼서보건지소
224,3405,문촌,Munchon,126.815036,35.114656,2112,도호
225,3413,상무라인대주,Sangmu Line Daeju Apt.,126.84548977,35.14788626,2218,농협운천지점
226,3502,영락공원,Yeongnak Cemetery Park,126.91768889,35.23046944,4081,영락공원2단지
227,3404,도호,Doho,126.8113,35.11649722,2101,신야촌
228,3411,동면,Dongmyeon,127.04198056,35.03075,6312,찰동
229,2031,북성,Bukseong,126.71202778,35.17644444,5056,황산
230,3184,우편집중국,Mail Center,126.85117222,35.21756667,5403,교통공원
231,3561,백운초교(남),Baegun Elementary School (South),126.900186,35.135536,3251,까치고개
232,1473,목련마을8단지,Mongryeon Village Apt. Complex 8,126.814517,35.179823,5299,수완중흥S-클래스 2차
233,835,소촌스위트밸리,Sochon Sweet Valley Apt.,126.79292222,35.15773333,5248,광주인력개발원
234,3907,문화전당역,Culture Complex Station,126.92124635,35.14544429,1131,전남대병원오거리
235,3908,문화전당역,Culture Complex Station,126.91895949,35.14624502,1130,국립아시아문화전당
236,3911,수완아름공원,Suwan Areum Park,126.82689069,35.18447612,5308,큰별초교
237,3912,수완아름공원,Suwan Areum Park,126.82753764,35.18449198,5307,명진고
238,672,산수동우체국,Sansu-dong Post Office ,126.93086264,35.15549707,1023,법원입구
239,2039,상림,Sanglim,126.862422,35.27086,6252,학산
240,1648,내기마을,Naegi Village,126.691415,35.111716,5123,신동마을
241,276,닭전머리,Dakjeonmeori,126.90226591,35.15098713,3194,농협공판장
242,1296,향토문화거리입구,Folk Culture Street Entrance ,126.91621111,35.16763611,4555,서방시장(남)
243,733,금호초교,Kumho Elementary School,126.857511,35.143161,2076,CBS방송국
244,1869,응기,Unggi,126.890756,35.251165,6119,삼소동입구
245,2362,남동,Nam-dong,126.6821,35.17953056,5036,동호
246,2122,운평,Unpyeong,126.731641,35.153036,5143,중방
247,2667,내남입구,Naenam Entrance,126.94061668,35.09606858,1075,주남
248,2276,수곡,Sugok ,126.91906944,35.24585,4050,영락공원입구
249,3446,싸이클경기장,Cycle Stadium,126.71841667,35.04568056,6064,나주동신대
250,1683,나주북초교,Naju Buk Elementary School,126.72588889,35.05125278,6056,나주농협송현지점
251,3329,정우화학,Jeongwoo Eztech,126.79922222,35.18571667,5548,광산소방서입구
252,1528,화순우체국,Hwasun Post Office,126.99149167,35.06039722,6392,화순부영아파트
253,1020,오정초교입구,Ojung Elementary School Entrance,126.91195278,35.18373889,4358,문화근린공원
254,3923,대전파출소(서),Daejeon Police Box(west),126.88829167,35.27700833,6124,대치
255,3924,대전파출소(서),Daejeon Police Box(west),126.88826111,35.276925,6123,한재초교
256,3926,대흥리,Daeheung-ri,126.93466437,35.29617838,6431,나산리
257,3947,수완보건지소,Suwan Branch of Community Health Center,126.82543426,35.19744179,5699,수완우미린2차
258,3956,능주교,Neungjugyo(Bridge),126.959768,34.99663794,6440,능주사거리
259,3958,주도리입구,Judori  Entrance,126.95449012,35.0293976,6437,백암
260,3959,주도리입구,Judori  Entrance,126.9546044,35.02935775,6438,연화공장
261,3962,양지마을,Yangji Village,126.88163466,35.20461667,4611,양지초교
262,3963,양지마을,Yangji Village,126.88159119,35.20441745,4610,향토음식박물관
263,869,용봉2휴먼시아아파트,Yongbong 2 Humansia Apt,126.89772242,35.17223187,4413,신안교입구
264,909,신흥맨션,Sinheung Mansion Apt.,126.93381667,35.17648611,4181,각화무등파크
265,956,연양리1구,Yeonyangli District 1,126.96279444,35.04193889,6362,연양리2구
266,978,천운장,Cheonunjang,127.057297,35.032785,6330,넘은골
267,979,천운장,Cheonunjang,127.057255,35.032874,6329,동암
268,2236,대덕,Daedeok,127.0382,35.249875,6104,팔학
269,2971,사직공원앞,Sajik Park Front,126.914496,35.14454,1125,중앙대교(동)
270,1000,용봉동성당,Yongbong-dong Catholic Church,126.89547616,35.17942109,4583,용봉현대3차아파트
271,3306,대원정사,Daewonjeongsa Temple,126.88396111,35.22716944,4020,호남권역재활병원
272,171,소촌금호아파트,Sochon Kumho Apt.,126.80718889,35.15290833,5244,아리랑고개
273,3016,효덕동행정복지센터,Hyodeok-dong Administration Welfare Center,126.90051389,35.11215278,3246,광주대입구
274,1790,지동,Jidong,126.804146,35.0719001,3057,화장앞길
275,1344,고내입구,Gonae Entrance,126.86281647,35.23856679,4008,월정
276,1675,창교,Changgyo,126.77208094,35.08640692,5023,용봉입구
277,2087,주도리3구,Judori District 3,126.93964167,35.03220556,6373,서태리2구
278,2257,행정리,HaengJeong-li,126.9089,35.28760833,6132,성산리
279,2045,세량리,Seryang-li,126.91365,35.07438333,6358,전남학숙
280,3630,평동중,Pyeongdong Middle School,126.75347742,35.12959092,5674,용동(평동)
281,3759,지죽동,Jijuk-dong,126.76309167,35.14144722,5667,라정시내버스
282,2628,하남3지구모아엘가,Hanam 3 District Moaelga,126.794791,35.182663,5570,장수동
283,1459,오치한전(북),Ochi KEPCO (North),126.90511944,35.18598889,4378,도로교통공단 대신파크
284,1365,충장로5가입구,Chungjangno 5(o)-ga Entrance,126.91107778,35.15055833,1133,광주공원(동)
285,1678,용봉입구,Yongbong Entrance,126.76714617,35.08144317,5020,성산마을
286,2320,광남고,Gwangnam High School,126.84214722,35.03850833,6002,교촌마을
287,97,광주학생운동기념탑,Monument for Gwangju Student Movement,126.908613,35.15267,4514,우진아파트
288,1454,화순용곡마을,Hwasun Yonggokmaeul,126.99780278,35.06032778,6427,화순전남대병원입구
289,1792,화장뒷길,Hwajang Back Road,126.804238,35.075863,3075,농막
290,3506,동천마을6단지,Dongcheon Village Apt Complex 6,126.86973896,35.17154489,4430,광암교입구
291,496,상무호반3차,Sangmu Hoban 3rd Apt.,126.86305652,35.15948757,2068,모아제일아파트
292,2323,방축마을,Bangchuk Maeul,126.83306667,35.03010833,6014,광주어망
293,1249,주공아파트,Jugong Apt.,126.914,35.17995833,4414,현대아파트
294,786,공구의거리,Street of Tools,126.88109722,35.17090556,4445,제2광천교
295,1265,주월초교,Juwol Elementary School,126.884116,35.1433,2292,화정중
296,640,서림초교입구,Seorim Elementary School Entrance,126.900396,35.16069,4495,북광주수협
297,2770,서방사거리육교,Seobang Sageori Overpass,126.91955278,35.16369444,1009,계림사거리
298,2052,신촌(본량),Sinchon (Bollyang),126.68223333,35.18707778,5067,용호(광산구)
299,3249,진곡 동길,Jingok East Road,126.79549644,35.20750743,5555,도현
300,1672,유림,Yurim,126.77759319,35.10098485,5021,동곡
301,811,광주송정역,Gwangju Songjeong Station ,126.79176819,35.13819297,5158,신동사거리
302,2771,계림사거리,Gyerim Sageori,126.920025,35.16229444,1002,광주고
303,1952,산제 아랫길,Sanje Downside,126.82653889,35.01728611,6045,산제 윗길
304,2326,매화동(나주),Maehwadong(Naju),126.82854,35.019676,6040,매화(신흥)
305,89,삼성콜센터,Samsung Call Center,126.90916226,35.16332236,4531,중흥시장
306,2007,덕성,Deokseong,126.779236,35.256504,6199,녹진
307,2732,임동교,Imdonggyo Bridge,126.733335,35.229539,5383,연계삼거리
308,2089,장성남중,Jangseong Nam Middle School,126.81269444,35.24351667,6214,장성남면농협
309,1320,진곡 서길,Jingok West Road,126.78851944,35.21121389,5556,백길마을
310,2097,천동(광산구),Cheondong (Gwangsan-gu),126.76117778,35.21048889,5390,보화촌
311,25,경신여고,Gyeongsin Girls' High School,126.8886,35.17252778,4434,무등경기장(북)
312,1163,작동,Jakdong,126.84486389,35.26185556,6259,덕촌
313,3047,전남방직,Chonbang Textile,126.893999,35.160944,4507,현대자동차
314,345,돌고개역(동),Dolgogae Station (East),126.89712932,35.15220731,2163,양동시장역(북)
315,673,산수시장,Sansu Market,126.931509,35.15428231,1024,법원입구
316,426,럭키아파트,Lucky Apt.,126.87468056,35.13796389,2314,화정남초교
317,475,석곡동행정복지센터,Seokgok-dong Welfare Center,126.94863994,35.21282789,4287,용호(북구)
318,747,금호도개공아파트,Kumho Dogaegong Apt.,126.86156111,35.13246944,2018,금호모아아파트
319,15,각화초교,Gakhwa Elementary School,126.93633611,35.18066111,4214,금호아파트
320,28,계소리3구,Gyesori District 3,126.95657222,35.04730833,6338,서태리1구
321,48,공항역,Airport Station,126.81248461,35.14410716,5202,송정파출소(북)
322,3493,비아사거리,Bia Sageori,126.825694,35.223484,5096,수완자동차매매단지
323,955,연동삼거리,Yeondong Samgeori,126.774475,35.206398,5363,창암
324,3934,수완지구,Suwan District,126.832353,35.19907,5852,수문초교입구
325,552,반촌,Banchon,126.85157578,35.19180343,5171,보건대입구
326,704,양산타운,Yangsan Town Apt.,126.872376,35.211757,4065,광주은행양산동지점
327,3490,발산교(남),Balsangyo Bridge (South),126.895063,35.158925,2157,농성중흥파크
328,3294,석교삼거리,Seokgyo Samgeori,126.81464,35.093399,3029,석정
329,3581,롯데백화점(북),Lotte Department Store (North),126.91113056,35.15481944,4586,금남로5가역
330,400,두암타운후문,Duam Town Apt. Back Gate,126.93325278,35.16095556,1029,율곡초교
331,2069,월봉서원입구,Wolbongseowon Confucian Academy Entrance,126.73802222,35.23633056,5374,석동
332,437,롯데칠성,Lotte Chilsung Beverage,126.875825,35.19884167,4030,코카콜라
333,3789,절골입구(북),Jeolgol Entrance (North),126.8291842,35.1108996,2334,서창동주민센터
334,3694,풍암동부센트리빌,Pungam Dongbu Centreville Apt.,126.866152,35.120657,2337,풍암동부아파트
335,3754,용동(평동),Yong-dong (Pyeong-dong),126.75031456,35.13468273,5673,평동중
336,3415,상무해광한신아파트,Sangmu Haegwang Hanshin Apt.,126.843109,35.154147,2322,계수초교
337,1854,농협판매장,Agricultural Cooperative Product Market,126.93236389,35.30080556,6165,수북사거리
338,2996,동천동행정복지센터,Dongcheon-dong  Administration Welfare Center,126.86383649,35.17008859,4145,동천마을3단지
339,1392,광주테크노파크,Gwangju Techno Park,126.86026667,35.22831389,4131,광주테크노파크후문
340,508,무등시장입구(북),Mudeung Market Entrance (North),126.895598,35.135008,3224,백운우체국(북)
341,569,백운우체국,Baegun Post Office,126.9016,35.13518611,3091,서광중
342,3403,신야촌,Sinyachon,126.815328,35.1211801,2137,신야촌입구
343,290,도로교통공단 대신파크,KoROAD / Daesin Park Apt.,126.90904301,35.18247293,4379,용봉한화꿈에그린
344,1076,금당중,Keumdang Middle School,126.88730556,35.13049167,3219,서남하이츠
345,101,남계촌,Namgyechon,126.9406891,35.0937386,1077,내지
346,699,삼우아파트,Samwoo Apt.,126.87046111,35.16595833,2194,진성아파트
347,341,도촌교,Dochon Gyo Birdge,126.81128889,35.21810278,5508,안청삼거리
348,1484,화정현대아파트,Hwajeong Hyundai Apt.,126.87663333,35.15431389,2285,화정역
349,1389,산정중입구,Sanjeong Middle School Entrance,126.803175,35.17033611,5567,산정초교
350,790,성촌마을.전통문화관,Seongchon Village/Traditional Literature Museum,126.95234167,35.13391944,1159,무등산국립공원(증심사)
351,838,광주인력개발원,Gwangju Human Resources Development Center,126.79631667,35.15733611,5218,광주지방경찰청입구
352,1359,체육고.폴리텍대학,Physical Education High School.Korea Polytechnic,126.8807,35.181975,4461,문화예술회관
353,3836,화천기공,Hwacheon Machine Tool,126.80678468,35.19662636,5759,수완진흥더루벤스
354,1667,옥동,Ok-dong,126.75852672,35.12530407,5473,평동우체국
355,691,명도삼거리,Myeongdo Samgeori,126.70006389,35.17009722,5045,애림
356,980,오룡,Oryong,126.74283056,35.25033056,5365,
357,1993,구암,Guam,126.89753611,35.10364444,3231,빛고을노인건강타운입구
358,2142,쌍내,Ssangnae,126.66355278,35.13633333,5594,우치
359,2216,승촌,Seungchon,126.78404722,35.05631667,3034,승촌주택단지
360,1807,보촌2구,Bochon District 2,126.958363,35.222522,6082,보촌1구
361,244,농성파출소,Nongseong Police Substaion,126.889012,35.149861,2055,서광주한전
362,1576,대성초교,Daeseong Elemntary School,126.90710009,35.14366417,3145,대성사거리
363,1890,주룡,Juryong,126.946425,35.22325833,4316,복다우
364,1421,안청농협,Ancheong Nonghyup,126.80131389,35.21678611,5532,구 하남북초교
365,2023,벽라리(화순역),Byeongna-ri (Hwasun Station),126.96629444,35.05306111,6351,대리교통광장(서)
366,206,구남구청,Former Nam-gu Office,126.90922922,35.12358684,3117,조봉초교
367,618,양림휴먼시아1차,Yangnim Humansia 1st Apt.,126.91385153,35.13443408,3081,봉선1동주민센터
368,623,봉선삼익사거리,Bongseon Samik Sageori,126.9112,35.12675556,3130,봉선삼익아파트(남)
369,3422,상무한국아파트,Sangmu Hankuk Apt.,126.846058,35.155075,2229,한국수자원공사
370,3569,양촌(삼도),Yangchon (Samdo),126.69396111,35.15717778,5624,양림마을
371,3900,망향동산길,Manghyangdongsan Road,126.93144263,35.21004839,4265,장동마을
372,3140,산림자원연구소,Forest Resources Research Institute,126.81993783,35.00706052,6030,국립나주병원
373,2361,문흥라인아파트,Munheung Line Apt.,126.9237274,35.18608876,4236,문흥라인동산아파트
374,1035,우진아파트,Woojin Apt.,126.90588889,35.15047778,2172,월산사거리
375,834,중흥초교,Jungheung Elementary School,126.91379521,35.1631456,4532,광주역
376,543,문흥중앙초교,Munheung Jungang Elementary School,126.92139722,35.18345278,4246,문화근린공원
377,1181,잿등,Jaetdeung,126.87203554,35.15182193,2277,쌍촌역
378,1663,용강입구,Yonggang Entrance,126.7371815,35.12437512,5475,기곡
379,1669,상선,Sangseon,126.780735,35.117621,5470,하선
380,3557,봉산중,Bongsan Middle School,126.84486791,35.20888521,5583,무양서원
381,3577,중앙대교(동),Jungangdaegyo Bridge (East),126.912419,35.146727,1170,충장치안센터
382,570,백운초교(북),Baegun Elementary School (North),126.90145556,35.13796111,3095,백운우체국
383,1445,일신초교,Ilsin Elementary School,126.89625766,35.21047216,4487,일동초교
384,644,북구보건소,Buk-gu Community Health Center,126.91043611,35.17301111,4545,중흥2동주민센터
385,726,상무병원,Sangmoo Hospital,126.85475556,35.15248333,2067,운천저수지
386,3772,송화마을1단지입구,Songhwa Village Apt. Complex 1 Entrance,126.89914881,35.11062588,3262,송화마을1단지
387,3639,연호전자,Yeonho Electronics,126.75686897,35.12988872,5676,평동중
388,1500,비아호반아파트,Bia Hoban Apt.,126.824079,35.223348,5102,비아119안전센터(북)
389,1957,도래,Dorae,126.8209001,34.997617,6029,해피니스골프장
390,2156,광산구유스호스텔,Gwangsan-gu Youth Hostel,126.68465556,35.11649444,5121,송학
391,2233,창평훈련장,Changpyeong Army Training Center,127.02273056,35.24159722,6194,창평초교
392,1846,삼지리,Samji-li,126.940125,35.26915,6137,황금리
393,2043,석동,Seokdong ,126.73684722,35.23015556,5348,연계삼거리
394,305,진월대주아파트,Jinwol Daeju Apt.,126.89851465,35.12125117,3242,대성여고
395,1913,광주호호수생태원,Gwangjuho Lake Eco Park,127.00048611,35.18389167,4325,수리
396,3895,도천저수지,Docheon Reservoir,126.82754968,35.21204514,5766,수완우미린2차
397,3902,닭뫼,Dakmoe,127.0078114,35.18212148,4476,평촌
398,234,녹동,Nokdong,126.93744281,35.1057026,1082,주남
399,3904,평촌,Pyeongchon,127.010321,35.176154,4571,닭뫼
400,1009,삼원맨션,Samwon Mansion Apt.,126.90222778,35.18081944,4384,용봉한화꿈에그린
401,526,문화아파트,Munhwa Apt.,126.93194722,35.17535278,4177,문화초교
402,1727,종합유통단지,Complex Distribution Center,126.85905,35.115246,2097,서부농수산물도매시장
403,1746,송하삼익아파트,Songha Samik Apt.,126.89402527,35.11098009,3160,남선산업
404,557,방혜,Banghye,126.774284,35.193037,5334,구강리
405,574,버들마을,Beodeul Village,126.86278611,35.16235833,2191,계수
406,604,시립장애인복지관,Community Rehabilitation Center,126.86739129,35.18660918,4157,동림푸른마을
407,1271,죽곡(남),Jukgok (South),126.95395556,35.20195,4317,분토(북구)
408,1293,쌍촌시영아파트,Ssangchon Siyeong Apt.,126.869428,35.145193,2084,백일초교
409,1322,진성아파트,Jinseong Apt.,126.87298611,35.16588056,2201,광천E편한세상
410,1353,광주다문화가족지원거점센터,Gwangju Multicultural Family Support Center,126.877223,35.1933001,4010,해태제과
411,1126,극락초교,Geungnak Elementary School,126.85836111,35.16642778,2185,버들주공1단지
412,1150,임동교,Imdonggyo Bridge,126.733384,35.229605,5382,상촌(임곡)
413,1172,남광주농협,Namgwangju Nonghyup,126.90714617,35.13359531,3208,양림휴먼시아1차
414,1213,전망대,Observatory,126.943186,35.158794,4195,산수무등파크
415,1596,동명고입구,Dongmyoung High School Entrance,126.73997115,35.15432568,5227,중방
416,1384,가야농원,Gaya Nongwon,126.93025833,35.12364722,1092,빛고을복지회관
417,1373,칠성마을,Chilseong Village,126.86410642,35.16618771,2203,광천동
418,3951,광주무역회관,Gwangju Trade Center,126.80980316,35.16106374,5767,계수
419,3953,광주김치타운,Gwangju Kimchi Town,126.8672849,35.10941883,서부농수산물도매시장,
420,3552,각화중,Gakhwa Middle School,126.93747671,35.18170419,4575,보광사
421,1520,대리교통광장(서),Daeri Traffic plaza(West),126.97137625,35.05329041,6343,벽라리(화순역)
422,3198,현진기업,Hyunjin Enterprise,126.86059722,35.23437778,4139,전남과학대학포스트비
423,3288,유덕2교차로,Yudeok 2 Intersection,126.8472801,35.166044,2207,덕흥삼거리
424,3331,신성화학,Sinseong Chemical,126.80319722,35.18575278,5526,정우화학
425,3357,박뫼,Bangmoe,126.74161839,35.16882034,5230,박호1리
426,2277,두촌,Duchon,126.92253333,35.24676111,4029,수곡
427,102,마재호반아파트,Majae Hoban Apt.,126.856187,35.126237,2030,마재부영아파트
428,163,금호시영아파트,Kumho Siyeong Apt.,126.859218,35.13653,2009,CBS방송국
429,182,기아차정문,Kia Motors Main Gate,126.877293,35.164438,2007,광천E편한세상
430,1107,월산(삼각동),Wolsan (Samgak-dong),126.90135,35.20432222,4261,양일로입구
431,1108,월산마을입구,Wolsan Village Entrance,126.89092041,35.1434431,3250,월산5동
432,1114,월암,Woram,126.83724367,35.14096856,2143,김대중컨벤션센터(마륵)역(북)
433,2290,월전(담양),Woljeon(Damyang),126.943,35.25396111,6150,양지
434,522,유동사거리,Yu-dong Sageori,126.90658333,35.15973056,4534,수창초교후문
435,1670,하선,Haseon,126.77957338,35.11186566,5027,평호동
436,1430,조선대병원,Chosun University Hospital,126.92540326,35.13701257,1149,전남대병원/남광주시장
437,1433,학림교,Hangnimgyo Bridge,126.922258,35.136048,1153,양림휴먼시아2차
438,2046,만연빌딩,Manyeon Building ,126.98887778,35.05577778,6346,화순터미널
439,548,박물관입구,Museum Entrance,126.880775,35.18688056,4454,마당고개
440,1048,운남삼성아파트,Unnam Samsung Apt,126.81776831,35.17457002,5305,목련마을6단지
441,3950,유격훈련장,Ranger Training Center,126.90096187,35.21298101,4472,일곡현대3차아파트
442,3952,광주무역회관,Gwangju Trade Center,126.80988294,35.16178039,5768,광산우산동주민센터
443,1857,고성리,Goseong-li,126.92371389,35.29496111,6159,월성(담양)
444,2873,현대자동차,Hyundai Motors,126.88569722,35.16138157,2008,광천터미널
445,110,광주종합버스터미널,U.square Gwangju Bus Terminal,126.87983697,35.16126826,2002,현대자동차
446,118,31사단,31st Infantry Division,126.90407844,35.19453509,4357,오치1동주민센터
447,128,구암2리,Guam-li 2,127.075646,35.030303,6306,구암1리
448,147,버들주공1단지,Beodeul Jugong Apt. Complex 1,126.861119,35.166497,2182,극락초교
449,168,어등초교,Odung Elementary School,126.80871178,35.16459969,5309,월곡일신아파트
450,176,광주공고입구,Gwangju Technical High School Entrance,126.89917988,35.18872487,4197,고려고
451,191,까치고개,Kkachi Pass,126.90205,35.14048611,3190,백운초교(북)
452,211,남면사무소,Nam-Myeon Office(Hwasun),127.09531667,35.00697222,6274,화순사평
453,228,육판리,Yukpalli,126.9421844,35.0917625,1079,선교
454,3300,동산초교옆,Side of Dongsan Elementary School,126.93701609,35.14913318,1062,동산아파트
455,3303,용봉모아아파트,Yongbong Moa Apt.,126.89519549,35.17780688,4392,유창허니문
456,3311,중소기업진흥공단호남연수원,SBC Honam Training Institute,126.934141,35.20024269,4314,도선사
457,3319,비아1동,Bia 1(il)-dong,126.82528333,35.22463889,5092,비아농협
458,3342,신광,Shingwang,126.81749444,35.12933333,5210,신야촌입구
459,1762,절골입구(서),Jeolgol Entrance (West),126.82871264,35.11076085,2147,중촌
460,1199,전남대스포츠센터,Chonnam National University Sport Center,126.91247222,35.17503333,4406,효동초교입구
461,3210,용전사거리(남),Yongjeon Sageori (South),126.893748,35.235746,4089,지산마을
462,3214,동림푸른마을,Dongnim Pureun Village Apt.,126.8648818,35.18740827,4151,산동교
463,3251,원예농협,Horticultural Cooperative,126.801428,35.206187,5538,지상정밀
464,3471,수북,Subuk,126.91990556,35.30769167,6172,수북
465,123,구강리,Gugang-ri,126.7824601,35.186276,5498,장수동
466,239,동면농공단지,Dongmyeon Agricultural Complex ,127.01753889,35.02645556,6319,동면농공단지
467,265,능주사거리,Neungju 4-Way Junc,126.95795833,34.99188611,6290,능주면사무소
468,1258,주도리3구,Judori District 3,126.93963333,35.03223611,6374,주도리
469,3144,산림자원연구소,Forest Resources Research Institute,126.81984167,35.00706111,6031,행정
470,230,생룡,Saengnyong,126.899374,35.228731,4046,지산마을
471,3023,도동,Dodong ,126.88556667,35.09990833,3151,도동교
472,3199,전남과학대학포스트비,Chunnam Techno University POST-BI,126.86416667,35.23409722,4099,현진기업
473,848,우산시영2단지(동),Usan Siyeong Apt. Complex 2 (East),126.80297183,35.15889591,5282,광주지방경찰청입구
474,3427,신용마을,Sinyong Village,126.878332,35.243689,4056,석수정
475,3433,봉선대화아파트,Bongseon Daehwa Apt.,126.906727,35.124834,3122,문성고
476,3450,천동입구,Cheondong Entrance,126.73130556,35.05221944,6067,나주북초교
477,63,광산중,Gwangsan Middle School,126.80790316,35.15890276,5271,어등초교
478,3044,분토(북구),Bunto (Buk-gu),126.95344444,35.19740278,4285,신촌 윗길(4수원지)
479,3281,발산,Balsan,126.892024,35.160417,2044,현대자동차
480,2153,송학,Songhak,126.68519722,35.10836944,6025,광산구유스호스텔
481,1812,고서중,Goseo Middle School,126.978375,35.224075,6071,교산
482,755,응암공원,Eungam Park,126.83462701,35.21664811,5442,도천저수지
483,3124,화순역,Hwasun Station,126.96219167,35.052275,6389,벽라리(화순역)
484,3143,평산리,Pyeongsan-li,126.834787,35.0567701,6017,광이리
485,3151,강의리,Gangui-li,126.90284089,35.26609284,6110,태목
486,130,구암1리,Guam-li 1,127.07303889,35.03346667,6303,화순광업소
487,150,풍영정천1교,Pungyeongjeongcheongyo 1 Bridge,126.81355,35.17508597,5301,금구중
488,170,소촌금호아파트,Sochon Kumho Apt.,126.80742155,35.15424152,5279,광산중
489,177,광주공고입구,Gwangju Technical High School Entrance,126.898859,35.18888509,4198,오치초교
490,193,꽃동네,Kkot Village,126.77689349,35.12693817,5464,장록
491,212,남면사무소,Nam-Myeon Office(Hwasun),127.09549167,35.00700556,6275,사평초교
492,235,녹서,Nokseo,126.665425,35.200548,6222,마령
493,245,농성파출소,Nongseong Police Substaion,126.88906781,35.15002163,2054,화정주공
494,255,패밀리농장,Family Farmland,126.663865,35.20534,6241,보강
495,87,광주여대,Kwangju Women's University,126.80198583,35.1643997,5274,하남중
496,108,광천초교,Gwangcheon Elementary School,126.888679,35.159266,2033,농성1동주민센터
497,116,광호예식장,Gwangho Wedding Hall,126.9067131,35.16312862,4335,NC백화점
498,145,장암마을,Jangam Village,126.82500241,35.14220804,5215,공항
499,174,금호타이어,Kumho Tire,126.79033611,35.14468333,5221,영광통사거리
500,189,5.18자유공원,May 18th Liberty Park,126.84041944,35.14786447,2209,상무라인대주
501,225,광주남초교,Gwangju Nam Elementary School,126.93082787,35.12702426,1094,소태역
502,3298,임암,Imam,126.87320915,35.09909777,3169,송암동
503,3317,신촌 아랫길(임곡),Sinchon Lower Road (Imgok),126.77352,35.220656,5356,용동(임곡)
504,3504,용연정수장,Yongyeon Purification Plant,126.9584,35.09227778,1105,교동
505,3194,쌍암공원,Ssangam Park,126.84088965,35.22200043,5402,첨단초교후문
506,3217,첨단부영아파트,Cheomdan Booyoung Apt.,126.84568802,35.2115358,5452,첨단2동주민센터
507,3232,담배인삼공사,KT&G,126.89142689,35.15477836,2041,그린파크
508,706,봉선삼익아파트(남),Bongseon Samik Apt. (South),126.912451,35.123705,3126,봉선2동주민센터
509,1156,임동한국아델리움1차,Im-dong Hankuk Adelium 1st Apt.,126.89178889,35.16668333,4505,임동주민센터
510,3272,교통공원,Transportation Park,126.85500296,35.21751697,5426,복룡입구
511,3316,신촌 아랫길(임곡),Sinchon Lower Road (Imgok),126.773583,35.2206001,5355,신촌 윗길(임곡)
512,3359,흑석사거리(남),Heukseok Sageori (South),126.807785,35.178272,5627,영천마을9단지
513,1460,오치한전,Ochi KEPCO,126.90570449,35.18501869,4377,도로교통공단 대신파크
514,3212,지산마을,Jisan Village,126.895902,35.232311,4105,생룡
515,26,경신여고(일방로),Gyeongsin Girls' High School (One-way road),126.8885741,35.17370897,4436,중앙여고
516,3250,진곡 동길,Jingok East Road,126.79525218,35.2076269,5554,오선동
517,238,동면농공단지,Dongmyeon Agricultural Complex ,127.01744722,35.02638889,6320,장동
518,242,그린파크,Green Park Apt.,126.89450422,35.15607192,2156,담배인삼공사
519,253,농장다리,Nongjangdari Overpass,126.92923841,35.15102514,1014,동구노인복지회관
520,272,다지2구,Daji District 2,127.00359167,35.04297778,6341,백동
521,1031,우산동중흥S클래스,Usan-dong Jungheung S-Class,126.80988334,35.15208947,5270,아리랑고개
522,1057,운림중,Unlim Middle School,126.94241667,35.13226111,1160,연진회미술원
523,3228,보문고,Bomun High School,126.779912,35.151785,5236,광산경찰서
524,39,고려고,Korea High School,126.899406,35.193711,4250,삼각그린타운
525,127,구암2리,Guam-li 2,127.07548611,35.03023056,6305,문성석재
526,166,금호아파트,Kumho Apt.,126.93335278,35.18143889,4215,동광주진입로
527,204,남구문화예술회관,Nam-gu Culture and Art Center,126.91765278,35.12214722,3115,녹동
528,262,능주고,Neungju High School,126.95999722,34.98648056,6286,능주역
529,3470,포백,Pobaek,126.926033,35.304507,6182,수북사거리
530,1046,목련마을,Mongryeon Village,126.8200363,35.17922002,5294,신가동
531,1090,월곡일신아파트,Wolgok Ilshin Apt.,126.80874644,35.16750863,5313,하남중
532,1071,운천초교,Uncheon Elementary School,126.84752253,35.15347189,2236,상무대우아파트
533,1103,월산5동,Wolsan 5(o)-dong,126.8939,35.141367,3186,월산4동
534,1209,전대치과병원,Chonnam National University hospital,126.90325,35.17156944,4352,전남대
535,179,기아자동차,Kia Motors,126.87684885,35.15872338,2270,해태아파트
536,194,꽃동네,Kkot Village,126.7767543,35.12705833,5465,월전
537,214,남광주역,Namgwangju Station,126.92193,35.13827,1142,전남대병원/남광주시장
538,2527,남부대,Nambu University,126.84301409,35.20687877,5427,무양서원입구
539,233,노대,Nodae,126.90516667,35.09913611,3233,빛고을노인건강타운입구
540,2278,단지삼거리,Danji Samgeori,126.92535556,35.24904444,4018,두촌
541,281,대덕아파트,Daedeok Apt.,126.81518094,35.15441286,5278,은별슈퍼
542,289,도로교통공단 대신파크,KoROAD / Daesin Park Apt.,126.90916169,35.18222411,4380,전남대후문위
543,3004,대촌동행정복지센터,Daechon-dong Administration Welfare Center,126.834266,35.081111,3009,하지석
544,320,덕산아파트,Deoksan Apt.,126.931575,35.16883056,4159,문화초교
545,331,도산파출소,Dosan Police Box,126.78534722,35.12843056,5006,공군부대
546,745,돌고개역(서),Dolgogae Station (West),126.89466877,35.15170102,2042,농성파출소
547,141,동림I.C입구,Dongnim IC Entrance,126.852515,35.174163,4142,광신대교
548,1598,동명고,Dongmyoung High School,126.73924185,35.15512836,5224,송산유원지
549,1563,동부교육청,Dongbu District Office of Education,126.91321944,35.16844167,4542,향토문화거리입구
550,82,동초교,Dong Elementary School,126.951392,35.206143,4277,월산(석곡)
551,2009,동호,Dongho,126.684378,35.169748,5038,평림
552,1723,매월동(북),Maewol-dong (North),126.84432739,35.11275819,2109,대동고
553,2162,명동삼거리,Myeongdong Samgeori,126.71575833,35.12135556,5046,월곡마을
554,485,모아제일아파트,Moa Jeil Apt.,126.861516,35.158405,2064,5.18기념문화센터
555,534,문화초교,Munhwa Elementary School,126.93269444,35.17321667,4178,두암초교
556,326,문흥지구입구(동),Munheung District Entrance (East),126.93487386,35.19087413,4224,도동고개
557,555,방송통신대,Korea National Open University,126.83714722,35.20963889,5433,무양서원
558,567,백운우체국,Baegun Post Office,126.90144167,35.13589167,3093,남구청
559,587,벽송저수지,Byeoksong Reservoir,127.078883,35.015658,6278,문성석재
560,3373,인지,Inji,126.659551,35.223579,6239,송곡
561,3051,흑석사거리(서),Heukseok Sageori (West),126.806694,35.180028,5580,흑석사거리(동)
562,1643,송학입구,Songhak Entrance,126.68309502,35.12124808,5140,광산구유스호스텔
563,2047,수성,Suseong,126.67511111,35.18438611,5062,용호(광산구)
564,832,수촌,Suchon,126.816195,35.257878,6255,산정
565,852,시청,City Hall ,126.85452528,35.15872266,2232,계수
566,256,신덕마을,Sindeok Village,126.786627,35.135063,5163,검문소
567,868,신안교,Sinangyo Bridge,126.89613889,35.17064722,4339,용봉초교
568,772,서창농협,Seochang Nonghyup,126.85846341,35.13219997,2020,서구문화센터
569,3402,신야촌입구,Sinyachon Entrance,126.81965556,35.1252,5213,신광
570,2303,금곡,Geumgok,126.99892222,35.16975,4275,석제
571,1949,팔마아파트,Palma Apt,126.83212222,35.02625833,6046,농업기술원
572,3000,유덕동주민센터,Yudeok-dong Community Service Center,126.8528401,35.164518,2195,유덕치안센터
573,3205,연제주공아파트,Yeonje Jugong Apt.,126.870246,35.203142,4073,양산초교
574,2309,수춘,Suchun,126.867259,35.085025,3033,양과동
575,439,마령,Maryeong,126.665232,35.202594,6224,패밀리농장
576,1011,용생,Yongsaeng,127.01338889,35.0343,6321,동면농공단지
577,1585,공군부대후문,Air Unit Back Gate,126.78743381,35.12582397,5003,현대교통
578,1043,금구중,Geumgu Middle School,126.81559444,35.17615556,5292,풍영정천1교
579,1004,용봉한화꿈에그린,Yongbong Hanwha Dream & Green Apt.,126.90427624,35.18144066,4389,삼원맨션
580,2112,화순우체국,Hwasun Post Office,126.9915,35.06053056,6391,화순교(동)
581,1183,전남공고,Jeonnam Technical High School ,126.84590144,35.19431318,5196,전남공고입구
582,585,벽송,Byeoksong,127.08187222,35.01183889,6276,사평중
583,1021,유창허니문입구,Yuchang Honeymoon Apt. Entrance,126.89802022,35.17916576,4405,용주초교
584,711,서태마을입구,Setaemaeul Entrance,126.82143611,35.23715556,6201,월정(장성)
585,92,광주역육교,Gwangju Station Overpass,126.90908027,35.1675554,4541,전남대사거리(동)
586,470,말바우시장(남),Malbawoo market(South),126.92167117,35.17051374,4425,동강대
587,507,무등시장입구(북),Mudeung Market Entrance (North),126.89586725,35.1349516,3223,무등시장
588,3358,박호동,Bakho-dong,126.740679,35.1641001,5234,박뫼
589,3371,삼서초교,Samseo Elementary School,126.65017922,35.22897831,6235,삼서보건지소
590,3082,금호전기,Kumho Electric,126.804616,35.206729,5501,두산테크택
591,3100,석수정,Seoksujeong ,126.87224205,35.2421164,4048,금당
592,3461,삼서우체국,Samseo Post Office,126.6466843,35.22977789,6234,삼서면사무소
593,783,빛고을복지회관,Bitgoeul Welfare Center,126.929803,35.127055,3087,백화아파트
594,683,살레시오여고,Salesio Girls' High School,126.9280273,35.14721797,1018,법원입구
595,3177,학산,Haksan,126.864325,35.26555,6272,진원동초교
596,3189,산수오거리,Sansu Ogeori,126.93155622,35.15560278,1027,법원입구
597,761,서방시장(남),Seobang Market (South),126.91944722,35.16632222,4421,계림사거리
598,782,빛고을복지회관,Bitgoeul Welfare Center,126.929601,35.127083,3086,가야농원
599,2525,산동교,Sandonggyo Bridge,126.85760918,35.18966555,5176,반촌
600,482,산수2동행정복지센터,Sansu 2(i)-dong Welfare Center,126.93647222,35.15383056,1031,동산아파트
601,3309,삼각호반아파트,Samgak Hoban Apt.,126.900977,35.193428,4256,고려고
602,2266,삼소동입구,Samso-dong Entrance,126.887869,35.246563,4041,응기
603,701,삼익세라믹,Samik Ceramic Apt.,126.92947443,35.13074638,1156,학동증심사입구역
604,721,상무1동행정복지센터,Sangmu 1(il)-dong Welfare Center,126.86936111,35.15269444,2271,가톨릭대평생교육원
605,732,상무중,Sangmu Middle School,126.85841667,35.14430833,2080,백일초교
606,697,상촌(임곡),Sangchon (Imgok),126.73101,35.231178,5346,와산
607,740,서광주우체국,Seogwangju Post Office,126.872469,35.146158,2302,쌍촌시영아파트
608,752,서남하이츠(국제양궁장),International Archery Field,126.8906977,35.1316437,3226,무등시장입구(남)
609,919,서일초교,Seoil Elementary School,126.89763,35.211668,4467,일곡초교
610,2041,서태리1구,Setae-li district 1,126.95094722,35.03948611,6354,계소리3구
611,1915,석제,Seokje,126.99898333,35.18031944,4290,금곡
612,785,공구의거리,Street of Tools,126.882024,35.171145,4444,광암교입구
613,1907,소쇄원,Soswaewon,127.01192222,35.18263611,6098,닭뫼
614,1601,송산유원지(종점),Songsan Recreation Area (Last stop),126.73990278,35.16273056,5249,송산유원지(종점)
615,814,도산역,Dosan Station,126.78710278,35.13085204,5009,공군부대
616,874,신안동행정복지센터,Sinan-dong Welfare Center,126.89826887,35.16720964,4340,태봉새마을금고
617,474,말바우시장(서),Malbau Market (West),126.92142778,35.17152778,4417,평화맨션
618,2896,매방골,Maebanggol,126.77669722,35.15156111,5228,보문고
619,580,벽라교,Byeongnagyo Bridge,126.96694444,35.05007778,6349,연양리1구
620,1405,평산리(장성),Pyeongsan-li(Jangseong),126.78960278,35.24044444,6221,승가입구
621,12,5.18기념문화센터,May 18th Memorial Culture Center,126.85839722,35.15888889,2063,시청
622,348,대인광장(동),Daein Plaza (East),126.91273889,35.15684722,4515,롯데백화점(북)
623,2292,연천,Yeoncheon,127.02787222,35.17708889,6100,
624,1719,동하,Dongha,126.83290556,35.12162222,2104,서창동주민센터
625,2300,광주호호수생태원,Gwangjuho Lake Eco Park,127.000655,35.183817,4326,충효동환벽당
626,1461,오치한전,Ochi KEPCO,126.90562443,35.18559839,4361,용봉중
627,2311,원산,Wonsan,126.845164,35.088644,3045,포충사
628,2318,나주축산농협,Naju Livestock Agricultural Cooperative Federation,126.842827,35.045395,6007,남평정류장
629,3041,지산중,Jisan Middle School,126.88119923,35.21651518,4110,건국동파출소
630,2294,소쇄원,Soswaewon,127.01191389,35.18256667,6097,전남교육연수원
631,2341,이십곡리,Isipgok-li,126.973775,35.070098,6367,너릿재공원
632,2307,이동입구,Idong Entrance,126.85915556,35.09586667,3164,임정
633,2315,남평교,Nampyeonggyo(Bridge),126.83848333,35.05090278,6010,광이리
634,2347,수북면사무소,Subukmyeon Office,126.92789444,35.30105,6173,수북사거리
635,2336,자치샘삼거리,Jachisaem 3-Way Junc,126.98635278,35.0613,6402,화순공공도서관입구
636,2358,덕촌,Deokchon,126.84101944,35.26271944,6247,작동
637,799,지원2동행정복지센터입구,Jiwon 2(i)-dong Welfare Center Entrance,126.933176,35.120785,1098,용산교(동구)
638,2119,송산유원지,Songsan Recreation Area,126.73813889,35.15833611,5250,동명고
639,825,송정파출소(북),Songjeong Police Box (North),126.80300189,35.14397573,5209,송정공원역
640,2301,수리,Suri,127.000085,35.182765,4293,광주호호수생태원
641,3335,수완자동차매매단지,Suwan Automobile Dealing Center,126.83357521,35.20750357,5107,비아성당
642,605,시립장애인복지관,Community Rehabilitation Center,126.86765278,35.18625278,4158,운암우미아파트
643,2235,신갈,Shingal,127.02509444,35.24520278,6106,창평훈련장
644,3330,신성화학,Sinseong Chemical,126.80358056,35.18553611,5527,중앙일보
645,876,신안사거리,Sinan Sageori,126.90428879,35.16539986,4342,광주역(동)
646,2895,서영대,Seoyeong university,126.870961,35.175845,4428,운암초교
647,2987,양산호반2차,Yangsan Hoban 2nd Apt.,126.88142041,35.21237212,4067,지산중학교
648,2991,운암초교,Unam Elementary School,126.87214397,35.17949738,4460,운암3단지
649,2993,발산교(북),Balsangyo Bridge (North),126.895079,35.15941,2159,양동시장역(북)
650,80,광주대,Gwangju University,126.897262,35.107417,3229,광주대
651,243,농성1동주민센터,Nongseong 1(il)-dong Community Service Center,126.89127117,35.15620979,2036,광천초교
652,789,역산공원입구,Yeoksan Park Enterance,126.80246399,35.16749414,5523,하남중앙초교입구
653,3034,지산입구,Jisan Entrance,126.88934462,35.23342651,4107,용전사거리(남)
654,2293,반석,Banseok,127.02212778,35.17885833,6095,연천
655,2302,석제,Seokje,126.99905833,35.18031667,4291,수리
656,2314,광이리,Gwangui-li,126.835447,35.055184,6003,평산리
657,2329,국립나주병원,Naju National Hospital,126.82135,35.00937778,6035,산제 윗길
658,2342,정수장입구,Purification Plant Entrance,126.99787222,35.05405278,6371,한보요업
659,2344,양림휴먼시아2차,Yangnim Humansia 2nd Apt.,126.91750402,35.1355136,3079,양림휴먼시아1차
660,2165,회룡(광산구),Hoeryong (Gwangsan-gu),126.69574167,35.1239,5645,연동
661,2354,전통공예문화학교,Traditional Crafts Culture School,126.89765278,35.24231389,4102,용전입구
662,2062,오룡,Oryong,126.74281389,35.2503,5364,종산제입구
663,2213,양촌(대촌),Yangchon(Daechon),126.79381667,35.06156944,3044,학촌
664,2096,천덕리,Cheondeok-li,126.95890556,35.00290278,6301,원지리
665,1850,남산마을입구,Namsanmaeul Entrance,126.93728611,35.28427778,6163,만화동
666,1861,행정리,HaengJeong-li,126.90886111,35.28766667,6131,병풍리
667,1885,단지마을,Danji Village,126.92618056,35.24610556,4017,시립공원묘지
668,1892,공원묘지입구,Cemetery Park Entrance,126.94952174,35.21623142,4273,복다우
669,1910,가사문학관,Gasa Literary House,127.004485,35.187297,6094,충효동환벽당
670,2348,응기,Unggi,126.891195,35.251666,6120,시목
671,2223,석정,Seokjeong ,126.809048,35.087552,3030,시산
672,2878,전남공고입구,Jeonnam Technical High School Entrance,126.84708612,35.1951322,5198,신창동
673,2245,정중리,Jeongjung-li,126.93609444,35.27758056,6180,황금리
674,1860,성산리,Seongsan-li,126.913959,35.289099,6115,행정리
675,1872,용산교(북구),Yongsangyo Bridge (Buk-gu),126.89058333,35.24433889,4087,용전사거리(북)
676,1891,복다우,Bokdau,126.94806667,35.21809167,4284,석곡파출소
677,2227,봉학,Bonghak,126.81877966,35.098607,2114,신용
678,2136,용성자동차학원,Yongseong Driving Academy,126.65904147,35.14994049,5604,마암
679,1855,수북면사무소,Subukmyeon Office,126.92783333,35.30113333,6174,고성리
680,1871,삼소동입구,Samso-dong Entrance,126.887518,35.24637441,4042,용산교(북구)
681,1916,금곡,Geumgok,126.9988701,35.169752,4276,충장사(북)
682,1930,포충사,Pochungsa Shrine,126.84980306,35.08964577,3021,원산
683,1942,남평농협,Nampyeong Agricultural Cooperative Federation,126.839732,35.046651,6012,남평정류장
684,210,전남대병원오거리,Chonnam National University Hospital Ogeori,126.92127596,35.1439899,1045,문화전당역
685,935,양동시장역(북),Yangdong Market Station (North),126.901182,35.15406914,2168,양동시장
686,1189,용봉쌍용아파트,Yongbong Ssangyong Apt.,126.88965278,35.18755556,4207,시립민속박물관
687,1193,전남여고,Chonnam Girls' High School,126.9202341,35.15086082,1129,금남로공원
688,2064,와산,Wasan,126.730275,35.240875,5366,상촌(임곡)
689,1888,국립5.18민주묘지,May 18th National Cemetery,126.94201,35.231889,4270,공원묘지
690,2939,봉선라인아파트,Bongseon Line Apt.,126.90917778,35.12552778,3123,봉선삼익아파트(남)
691,57,광명하이츠후문,Gwangmyeong Heights Apt. Back Gate,126.868049,35.162159,2177,버들마을
692,2657,경신여고,Gyeongsin Girls' High School,126.88857538,35.17282483,4435,광천파출소
693,2671,문흥금호아파트,Munheung Kumho Apt.,126.9266088,35.19076258,4232,문흥지구입구(동)
694,2757,수피아여고,Speer Girls' High School,126.91044444,35.13499722,3101,석산고
695,2777,임동오거리,Im-dong Ogeori,126.897544,35.159689,4501,북성중
696,3444,정렬사,Jeongryeolsa,126.716077,35.043605,6066,나주금성고
697,1933,하지석,Hajiseok,126.83639828,35.08368556,3065,대촌동주민센터
698,3460,산정,Sanjeong(Jangseong),126.81373018,35.24855747,6251,수촌
699,3105,한양아파트,Hanyang Apt.,126.87520556,35.1979,4134,연제현대아파트
700,3167,승가마을,Seunggamaeul,126.7948901,35.237186,6206,평산리(장성)
701,3180,한국생산기술연구원,Korea Institute of Industrial Technology,126.84753064,35.22655719,4133,국립광주과학관
702,3262,삼각그린타운,Samgak Greentown Apt.,126.89980373,35.19611594,4252,고려고
703,518,무양서원,Muyangsewon Confucian Academy,126.83974885,35.20872135,5430,봉산중
704,521,무진중,Mujin Middle School,126.89953333,35.14471944,3198,대성초교
705,524,문산중,Munsan Middle School,126.92403611,35.19099722,4228,문흥1동주민센터
706,3013,문성고,Munseong High School,126.907212,35.122032,3121,봉선대화아파트
707,3346,문촌,Munchon,126.815154,35.114552,2111,서창치안센터
708,340,국립아시아문화전당(구.도청),Asia Culture Center,126.91844214,35.14800379,1122,문화전당역(남)
709,2952,문흥금호아파트,Munheung Kumho Apt.,126.92676245,35.19093975,4233,문흥라인동산아파트
710,2687,방림삼거리,Bangnim Samgeori,126.91818219,35.13344209,3085,학림교
711,560,백동,Baekdong,127.00698889,35.04080556,6317,다지2구
712,1310,법원입구,District Court Entrance,126.93089023,35.15172134,1057,산수오거리
713,2061,예림,Yerim,126.69513611,35.16950278,5069,명도삼거리
714,1254,두암주공입구,Duam Jugong Apt. Entrance,126.93232222,35.16612778,4188,덕산아파트
715,403,등촌,Deungchon,126.96395833,35.17435833,4279,청풍학생야영장
716,3478,마현,Mahyeon,126.81484301,35.09539303,2139,구룡(대촌)
717,3095,금호전기,Kumho Electric,126.804356,35.206577,5500,하남삼성전자사거리(북)
718,184,기아차중문,Kia Motors Center Gate,126.872462,35.162035,2188,광명하이츠후문
719,1098,월산(석곡),Wolsan (Seokgok),126.94958333,35.21053056,4306,동초교
720,2254,월성(담양),Wolseong(Damyang),126.920865,35.293122,6178,고성리
721,1583,월암,Woram,126.83716484,35.14127662,2144,서창입구
722,1370,광주세무서,Gwangju District Tax Office,126.91286944,35.14807778,1134,향교입구
723,1551,유니버시아드힐스테이트,Universiade Hill State,126.88425556,35.147525,2297,화정중
724,2281,공원묘지,Cemetery Park,126.934928,35.236315,4272,시립공원묘지
725,1928,이장2동,Ijang 2(i)-dong,126.85836073,35.08823353,3055,복수
726,232,넘은골,Neomeungol,127.06650556,35.03480833,6308,천운장
727,3139,다도초교,Dado Elementary School,126.82069444,34.99938333,6026,행정
728,3146,오강리,Ogang-li,127.00515833,35.22841389,6188,의향리2구
729,2754,서광중,Seogwang Middle School,126.90441667,35.13680833,3097,석산고
730,2762,학강초교,Hakgang Elementary School,126.91766111,35.13824722,3176,기독병원
731,2769,교육대,Gwangju National University of Education,126.92325354,35.16401505,4561,서방시장(남)
732,2779,북성중,Buksung Middle School,126.90408084,35.15781271,4521,임동오거리
733,670,산수보건소,Sansu Community Health Center ,126.74617778,35.19224722,5058,매동
734,1621,삼도삼거리,Samdo Samgeori,126.674652,35.163617,5635,광주시립인광병원
735,313,대촌마을,Daechon Village,126.85404167,35.23571389,4043,은혜학교
736,709,삼정초교,Samjeong Elementary School,126.93721111,35.16684444,4192,대주빌라
737,164,상무금호아파트,Sangmu Kumho Apt.,126.84284196,35.14947661,2216,5.18자유공원
738,1302,상무중흥아파트,Sangmu Jungheung Apt.,126.845145,35.15176287,2226,상무금호아파트
739,2351,상촌(임곡),Sangchon (Imgok),126.72933656,35.23217524,5345,임동교
740,763,서광주전화국,KT Seogwangju District Office,126.89457049,35.1533595,2047,농성1동주민센터
741,757,서방사거리,Seobang Sageori,126.91873726,35.16505862,4565,해광맨션
742,1579,김대중컨벤션센터(마륵)역,Kimdaejung Convention Center (Mareuk) Station,126.84009597,35.14270966,2131,월암
743,2042,서태리2구,Setae-li district 2,126.94440833,35.03155556,6356,역청공장
744,2339,선교,Seongyo,126.94716944,35.08895556,1086,내지
745,2256,성산리,Seongsan-li,126.913949,35.289002,6116,월성(담양)
746,836,소촌스위트밸리,Sochon Sweet Valley Apt.,126.79286667,35.15787222,5247,어룡초교
747,554,방림삼거리,Bangnim Samgeori,126.91853649,35.13377207,3084,송림주택
748,824,송정초교,Songjeong Elementary School,126.79595278,35.13334444,5010,도산동주민센터
749,1882,수곡,Sugok ,126.91912222,35.24568333,4049,두촌
750,3338,수완동,Suwan-dong ,126.838139,35.203411,5104,신창동
751,1886,시립공원묘지,Municipal Cemetery Park,126.932625,35.23747778,4051,공원묘지
752,151,풍영정천1교,Pungyeongjeongcheongyo 1 Bridge,126.81346905,35.17528113,5302,대반초교
753,860,신등,Sindeung,126.77056513,35.19529735,5351,방해
754,1919,송암동,Songam-dong,126.87712778,35.09856111,3158,향등
755,1936,도촌,Dochon,126.83666111,35.07749722,3017,상칠석
756,1945,광남고,Gwangnam High School,126.84207778,35.03852778,6001,광주어망
757,51,과기원,Gwangju Institute of Science and Technology,126.84136944,35.22455833,4009,한국전자통신연구원
758,217,신흥목재포장,Sinheung Wood Package,126.80945833,35.21637222,5503,새한철강
759,178,첨단라인아파트,Cheomdan Line Apt.,126.83866063,35.21796045,5417,응암공원
760,730,상무역,Sangmu Station,126.8477364,35.14641389,2224,전남고입구
761,1972,상지석,Sangjiseok,126.84017404,35.08631004,3023,원산
762,132,새한철강,Saehan Steel,126.81028333,35.21352222,5521,신흥목재포장
763,2753,서광중,Seogwang Middle School,126.90408889,35.13688889,3096,백운우체국(북)
764,1594,샛터마을,Saetteo Village,126.75650842,35.15129444,5238,서봉마을
765,776,서창입구,Seochang Entrance,126.83305402,35.14021171,2133,장암마을
766,1805,석곡파출소,Seokgok Police Box,126.94856274,35.21392324,4289,공원묘지입구
767,780,선교,Seongyo,126.94706111,35.08886389,1087,화순터널
768,1679,성산마을,Seongsanmaeul,126.757975,35.07332778,6024,노안남초교
769,2977,단사공원,Dansa Park,126.939854,35.148143,1065,지산유원지입구
770,2926,명상의집,Myeongsangui-jip Retreat House,126.90221,35.215907,4464,교통연수원입구
771,161,풍암금호아파트,Pungam Kumho Apt.,126.88332021,35.12443551,2255,신암마을
772,1902,노안동,Noandong,126.955025,35.23582222,6076,주평
773,1904,연천,Yeoncheon,127.02790278,35.17715278,6099,반석
774,1912,충효동환벽당,Chunghyo-dong Hwanbyeokdang Pavilion,127.002427,35.186737,4327,광주호호수생태원
775,1924,향등,Hyangdeung,126.877388,35.090127,3073,양과동
776,1939,광이리,Gwangui-li,126.835284,35.054803,6004,남평교
777,205,남구문화예술회관,Nam-gu Culture and Art Center,126.91761389,35.12245278,3114,봉선2동주민센터
778,929,안양사,Anyangsa Temple,126.98823611,35.15415833,4298,무등산국립공원(원효사)
779,167,금호아파트,Kumho Apt.,126.93413324,35.180943,4216,각화무등파크
780,1510,홍림교,Hongnimgyo Bridge,126.93594444,35.13170833,1168,연진회미술원
781,2848,풍향시장,Punghyang Market,126.92923889,35.16177646,4569,두암지구입구
782,2867,운암시장,Unam Market,126.88271044,35.17451811,4449,운암3단지
783,2962,문흥지구입구(남),Munheung District Entrance (South),126.93370219,35.18827063,4239,농산물공판장
784,2972,농성중흥파크,Nongseong Jungheung Park Apt.,126.89219175,35.15625687,2039,서광주전화국
785,2980,매일시장입구,Maeil Market Entrance,126.93177222,35.14823333,1053,지산2동주민센터
786,417,첨단사거리,Cheomdan Sageori,126.84086857,35.21793502,5454,첨단라인아파트
787,901,신창초교,Sinchang Elementary School,126.84031973,35.19842176,5194,신창중
788,2947,동아제약,Dong-A Pharmaceutical,126.8755706,35.20672933,4027,양산호수공원
789,894,신창부영1차아파트,Sinchang Booyoung 1st Apt.,126.83856964,35.1904436,5193,보건대후문
790,3003,도촌,Dochon,126.836962,35.077511,3016,대촌동주민센터
791,3452,삼서초교,Samseo Elementary School,126.6500363,35.2289365,6236,송곡
792,43,고룡정보산업학교,Goryong Information Industry School,126.767721,35.207872,5325,보화촌
793,72,광주고/4.19역사관,GwangJu High School/4.19 History Hall,126.92048927,35.15734444,1003,대인시장(동)
794,3425,연제현대아파트,Yeonje Hyundai Apt.,126.87170556,35.19768611,4075,한양아파트
795,3431,송원대,Songwon University,126.87657222,35.11055532,3161,송암공단입구
796,1397,도산동행정복지센터,Dosan-dong Welfare Center,126.79281322,35.12897935,5014,송정초등학교
797,231,넘은골,Neomeungol,127.065929,35.034715,6307,화순광업소
798,1664,기곡,Gigok ,126.74254177,35.12605306,5462,용곡입구
799,2829,향교,Hyanggyo Confucian School ,126.90908429,35.14490379,3143,중앙대교(서)
800,1224,제일맨션,Jeil Mansion Apt.,126.89137222,35.14072222,3187,월산마을
801,2831,한국은행,Bank of Korea,126.84864733,35.15804108,2242,시청
802,2832,한국은행,Bank of Korea,126.848045,35.15786402,2241,지적공사
803,2673,동산초교,Dongsan Elementary School,126.93644167,35.14933333,1061,법원
804,1574,5.18기념공원,May 18th Memorial Park,126.85472939,35.15609737,2061,상무병원
805,2724,삼도초교,Samdo Elementary School,126.70049072,35.16282982,5128,지동(광산구)
806,1050,금구초교,Geumgu Elementary School,126.81506657,35.17790307,5293,목련마을8단지
807,484,명지맨션,Myeongji Mansion Apt.,126.89193056,35.1398,3181,무등시장
808,2976,단사공원,Dansa Park,126.939872,35.148256,1064,동산초교옆
809,2945,광주은행양산동지점,Kwangju Bank Yangsan-dong Branch,126.87564961,35.21094054,4062,양산택지사거리
810,2951,자연과학고,Natural Science High School,126.91650556,35.18676667,4366,문흥1동주민센터
811,928,기아차중문,Kia Motors Center Gate,126.87154,35.161557,2189,광천터미널
812,1480,용봉현대3차아파트,Yongbong Hyundai 3rd Apt.,126.8956115,35.18134344,4397,비엔날레전시관
813,1927,이장1동,Ijang 1(il)-dong,126.861759,35.087048,3053,이장2동
814,477,전남공무원교육원,Jeonnam Officials Training Institute,126.891688,35.193815,4210,매곡대화아파트
815,2604,현진기업,Hyunjin Enterprise,126.86038333,35.23438056,4138,한국광기술원
816,976,예술의거리입구,Art Street Entrance,126.91631111,35.15104444,1126,광주세무서
817,1633,망월,Mangwol,126.66147222,35.13746667,5595,대봉삼거리
818,1702,동산마을,Dongsanmaeul(Naju),126.74850278,35.06083889,6022,노안남초교
819,1767,학동(서창),Hak-dong (Seochang),126.82433775,35.0974931,2152,개동
820,1321,진성,Jinseong,126.79055556,35.21373056,5558,진곡 서길
821,1494,호남맨션,Honam Mansion Apt.,126.93575878,35.15737214,1039,율곡초교
822,3028,변전소,Electrical Substation,126.93150048,35.20656228,4281,망향동산길
823,2291,양지분교,Yangji Branch School,126.94929444,35.25453333,6144,월전(담양)
824,2297,가사문학관,Gasa Literary House,127.004587,35.187086,6093,지실
825,2317,남평농협,Nampyeong Agricultural Cooperative Federation,126.84048333,35.04686667,6011,남평오거리
826,2337,남계촌,Namgyechon,126.9416885,35.0935898,1076,남계(화순)
827,2346,평촌,Pyeongchon,126.83857778,35.26528056,6271,덕촌
828,2356,창평초교,Changpyeong Elementary School,127.018712,35.2397101,6192,창평고입구
829,2075,가정,Gajeong,126.7528501,35.216476,5324,비시동
830,2044,성내,Seongnae,126.749589,35.218039,5349,가정
831,2961,농산물공판장,Agricultural Wholesale Market,126.93256379,35.18467675,4217,문흥지구입구(동)
832,2005,능주초교,Neungju Elementary School,126.95851667,34.98851667,6293,능주면사무소
833,1652,대덕마을,Daedeok Village,126.71240155,35.11362015,5466,명동삼거리
834,288,대성초교,Daesung Elementary School,126.90584539,35.14321242,3138,향교입구
835,302,대주빌라,Daeju Villa,126.93723611,35.16947778,4183,삼정초교
836,318,봉선대화아파트,Bongseon Daehwa Apt.,126.90597664,35.1261902,3214,주월중입구
837,328,도산동,Dosan-dong,126.78417834,35.12701872,5004,도산동
838,3345,도호,Doho,126.8113,35.11650278,2102,문촌
839,351,동구노인종합복지관,Donggu General Welfare Center,126.92356667,35.15096944,1015,농장다리
840,3132,동면,Dongmyeon,127.04201944,35.03070556,6311,천동(화순)
841,1755,동명회.송원고,DongMyung Welfare Society.Songwon High School,126.87055556,35.1141,2244,운리마을
842,369,동산아파트,Dongsan Apt.,126.936818,35.151487,1059,산수2동주민센터
843,3396,동촌,Dongchon,126.68632778,35.12712778,5652,도야
844,393,교대금호어울림,Gyodae Kumho Oullim,126.93103889,35.16458889,4562,풍향시장
845,2938,두암초교,Duam Elementary School,126.93267222,35.16827222,4189,문화초교
846,1238,마재종원아파트,Majae Jongwon Apt.,126.85502222,35.13013889,2027,마재호반아파트
847,148,극락강역입구,Geungnakgang Station Entrance,126.82956599,35.17864152,5291,선광학교입구
848,175,금호타이어,Kumho Tire,126.7904401,35.144996,5220,송정한전
849,1094,월드컵경기장,World Cup Stadium,126.87420594,35.13563756,2254,염주체육관
850,1106,월산마을,Wolsan Village,126.88826973,35.14194969,3179,월산마을입구
851,1858,월성(담양),Wolseong(Damyang),126.920865,35.293237,6177,성산리
852,1897,월전(담양),Woljeon(Damyang),126.94300833,35.25384167,6149,양지분교
853,3340,월전(광산구),Woljeon,126.77371733,35.12557723,5481,평동역(서)
854,3002,유덕치안센터,Yudeok Police Patrol & Services Center,126.854825,35.165868,2199,극락초교
855,3152,태목,Taemok,126.89744722,35.26191111,6126,시목
856,1080,평동역(서),Pyeong-dong Station (West),126.76743869,35.12498495,5487,평동우체국
857,1967,평산리,Pyeongsan-li,126.835138,35.056339,6018,어전
858,3201,풍기산업,Poongki Industrial,126.86716111,35.23506389,4127,첨단종점
859,3339,월전(광산구),Woljeon,126.77374473,35.12526723,5480,꽃동네
860,2071,월정(장성),Woljeong (Jangseong),126.817901,35.238417,6207,장성월곡
861,693,유동사거리,Yu-dong Sageori,126.90649521,35.15886126,4527,엔씨백화점
862,1404,평림,Pyeongnim,126.690889,35.167753,5082,동호
863,432,폭스존,Fox Zone,126.85273056,35.22096389,5424,첨단롯데마트
864,2768,풍향삼거리,Punghyang Samgeori,126.92778228,35.16244868,4568,두암지구입구
865,1252,하남중,Hanam Middle School,126.80510595,35.16655335,5321,광주여대
866,1711,하선,Haseon,126.77964311,35.11094257,5028,상선
867,1409,학동평화맨션,Hak-dong Pyeonghwa Mansion Apt.,126.93278611,35.13033889,1164,홍림교
868,264,만수리,Mansu-li,126.95340556,35.01251667,6294,원지리
869,1591,매방골,Maebanggol,126.77703889,35.15175278,5229,선암
870,1616,명도삼거리,Myeongdo Samgeori,126.69983704,35.16999225,5044,도림
871,488,모아2차아파트,Moa 2nd Apt.,126.91414799,35.12808684,3106,봉선삼익사거리
872,1612,지동(광산구),Jidong (Gwangsan-gu),126.70779731,35.16062721,5136,삼도초교
873,1867,한재중,Hanjae Middle School,126.888556,35.274493,6128,신남마을
874,3160,대전파출소(남),Daejeon Police Box(South),126.88869377,35.27680496,6467,한재초교
875,3197,백운초교(남),Baegun Elementary School (South),126.90087021,35.13650528,3094,무등시장입구(남)
876,3208,양산초교,Yangsan Elementary School,126.87086235,35.20636957,4064,연제주공아파트
877,3275,김대중컨벤션센터,Kimdaejung Convention Center,126.839575,35.145397,2211,김대중컨벤션센터(마륵)역
878,3313,두동,Dudong,126.76178056,35.21554444,5332,비시동
879,3321,하남삼성전자사거리(북),Hanam Samsung Electronics Sageori (North),126.804376,35.202673,5517,지상정밀
880,3348,너릿재공원,Neoritjae Park,126.95180833,35.08111944,1081,선교
881,3283,양동시장역(천변),Yangdong Market Station (Riverside),126.901354,35.155161,2170,양동시장역(남)
882,1853,하촌1길,Hachon 1-gil,126.93423333,35.29771111,6162,농협판매장
883,1708,동곡,Donggok,126.77512922,35.09810127,5017,유림
884,3138,다도초교,Dado Elementary School,126.82054167,34.99941389,6027,도래
885,3159,원천리,Woncheol-li,126.89438056,35.27880833,6122,한재초교
886,1261,주월주택단지,Juwol Housing Area,126.89789223,35.13581636,3104,남광주농협
887,3200,전남과학대학포스트비,Chunnam Techno University POST-BI,126.86423611,35.23397222,4100,풍기산업
888,3273,교통공원,Transportation Park,126.85508332,35.21787765,4013,우편집중국
889,505,무등시장,Mudeung Market,126.89363056,35.1376,3182,무등시장입구(북)
890,509,무등시장입구(남),Mudeung Market Entrance (South),126.89503734,35.13376963,3222,서남하이츠
891,540,문흥고가,Munheung Overpass,126.92907519,35.18135642,4223,문흥명지아파트
892,2018,백길마을,Baekgil Village,126.78395556,35.21068056,5514,진곡 서길
893,578,법원,District Court,126.93306111,35.15040556,1054,지산2동주민센터
894,1829,보촌1구,Bochon District 1,126.96318889,35.22331667,6080,보촌2구
895,3368,유산리,Yusal-li,126.95666389,35.25506944,6152,송강정
896,1615,도림,Dorim,126.70098056,35.1667,5129,명도삼거리
897,3096,첨단대우아파트,Cheomdan Daewoo Apt.,126.831546,35.220243,5414,동원촌
898,3162,산수오거리(연천),Sansu Ogeori (Yeoncheon),126.93138094,35.15640394,1028,장원초교(서)
899,3183,우편집중국,Mail Center,126.85131944,35.2179,5441,농산물품질관리원
900,659,비아중,Bia Middle School,126.83515556,35.22275,5398,쌍암공원
901,2067,산막,Sanmak,126.767279,35.198303,5342,벽파정
902,3322,하남삼성전자사거리(북),Hanam Samsung Electronics Sageori (North),126.804645,35.203084,5516,금호전기
903,2849,풍향삼거리,Punghyang Samgeori,126.92778985,35.16276651,4567,교육대
904,1391,하남철강,Hanam Steel,126.80055833,35.21344167,5569,구 하남북초교
905,3449,나주북초교,Naju Buk Elementary School,126.72649167,35.05120833,6057,천동입구
906,3456,칠석,Chilseok,126.83528844,35.06383041,3061,하칠석/고싸움전수관
907,58,광명하이츠후문,Gwangmyeong Heights Apt. Back Gate,126.866668,35.161713,2176,기아차중문
908,41,고려병원,Hwasun Korea Hospital,126.99015,35.05657778,6339,화순미륭아파트
909,67,광신대교,Gwangsindaegyo Bridge,126.84303611,35.17602778,4140,동림I.C입구
910,85,광주병원,Gwangju Hospital,126.92921839,35.17808202,4170,동광주진입로
911,100,광주일고.광주고용센터,Gwangju Jeil High School/Gwangju Employment Center,126.90793985,35.15526315,4512,북성중
912,52,광주광역시교육청(광덕고),Gwangju Metropolitan Office of Education,126.88041,35.147607,2287,화정중
913,1905,반석,Banseok,127.02213333,35.17891944,6096,전남교육연수원
914,3206,연제주공아파트,Yeonje Jugong Apt.,126.870141,35.203224,4074,연제새한아파트
915,3519,용전,Yongjeon,126.895981,35.238607,4088,용전사거리(남)
916,169,어등초교,Odung Elementary School,126.8083338,35.16414033,5310,광산중
917,359,동림교,Dongnimgyo Bridge,126.86393056,35.17513333,4147,동림우미린아파트
918,419,어룡초교,Eoryong Elementary School,126.79227222,35.15579444,5259,정광고입구
919,3586,기아차하남공장,Kia Motors Hanam Forwarding Office,126.798925,35.20892778,5651,도현
920,3595,농산물품질관리원,National Agricultural Products Quality Management Service,126.84685556,35.21754167,5657,우편집중국
921,3607,영락공원2단지,Yeongnak Cemetery Park Complex 2,126.92095,35.230894,4596,효령동
922,3617,송화마을4단지,Songhwa Village Apt. Complex 4,126.90422416,35.1070249,3258,조각배어린이공원
923,3623,광주지방경찰청입구,Gwangju Metropolitan Police Agency Entrance,126.800462,35.158626,5658,광주인력개발원
924,3628,연산동,YeonsanDong,126.74128142,35.11449051,5949,무등도요
925,3634,지죽동,Jijuk-dong,126.76265,35.14136111,5666,삼광실업
926,3638,명화전자,Myeonghwa Electronics,126.76755632,35.13018126,5680,월전공원(남)
927,3643,장덕마을,Jangdeok Village,126.81460833,35.193225,5732,수완새한아파트
928,3647,수완양우내안애,Suwan Yangwoo Naeanae Apt.,126.814979,35.199695,5736,고실마을
929,3653,광주농수산물유통센터(북),Agricultural Products Distribution Center (North),126.819713,35.185066,5743,수완중흥S-클래스 1차
930,1305,매동,Maedong,126.74258889,35.19016667,5040,입석
931,1314,호남권역재활병원,Honam Regional Rehabilitation Hospital,126.882962,35.225484,4113,대원정사
932,1336,마당고개,Madang Pass,126.87754722,35.19081667,4453,광주다문화가족지원거점센터
933,1349,청명아파트,Cheongmyeong Apt.,126.92691389,35.16986944,4166,덕산아파트
934,1366,충장로5가입구,Chungjangno 5(o)-ga Entrance,126.91141494,35.15064429,1132,금남로4가역
935,1127,극락초교,Geungnak Elementary School,126.858344,35.1666001,2184,유덕치안센터
936,1141,첨단금호아파트,Cheomdan Kumho Apt.,126.83621637,35.22086154,5411,첨단초교
937,1147,임곡역,Imgok Station,126.74575,35.21875556,5379,광일고
938,1164,신운,Shinun,127.022125,35.02562778,6323,농소
939,1174,장수동,Jangsu-dong ,126.788559,35.183158,5545,장수지하도
940,696,하남삼성전자,Hanam Samsung Electronics,126.80672222,35.20240556,5563,지상정밀
941,1424,하남3지구모아엘가,Hanam 3 District Moaelga,126.795128,35.181806,5571,단전
942,2118,흑석,Heukseok,126.75090833,35.19583611,5087,맥동
943,473,말바우시장(서),Malbau Market (West),126.92113611,35.17151944,4416,말바우시장(동)
944,2979,매일시장입구,Maeil Market Entrance,126.93179444,35.14828056,1052,살레시오여고
945,1136,명상의집,Myeongsangui-jip Retreat House,126.902816,35.216178,4463,우치공원
946,2128,지동(광산구),Jidong (Gwangsan-gu),126.70773772,35.16043058,5135,동백훈련장
947,538,문흥1동행정복지센터,Munheung 1(il)-dong Welfare Center,126.92181024,35.18774064,4229,문산중
948,3356,박호1리,Bakho 1(il)-ri,126.7453701,35.174043,5232,노동
949,556,방송통신대,Korea National Open University,126.83734397,35.20941141,5434,산월초교입구
950,495,버들마을,Beodeul Village,126.86271667,35.16185029,2192,광명하이츠후문
951,1808,보촌1구,Bochon District 1,126.963217,35.223124,6079,해평리
952,3370,삼서면사무소,Samseomyeon Office ,126.6468206,35.23200166,6230,삼서우체국
953,3099,금당,Geumdang ,126.86927347,35.24072958,4015,석수정
954,3102,용전사거리(북),Yongjeon Sageori (North),126.893401,35.236655,4104,지산마을
955,3168,승가마을,Seunggamaeul,126.795021,35.237017,6205,남면보건지소
956,3182,한국전자통신연구원,Electronics and Telecommunications Research Institute,126.84448678,35.22555207,4012,한국생산기술연구원/정부광주지
957,3018,봉선삼익아파트(북),Bongseon Samik Apt. (North),126.91324493,35.12584585,3128,봉선삼익사거리
958,654,산월초교입구,Sanwol Elementary School Entrance,126.83681111,35.21219722,5440,방송통신대
959,2034,산수보건소,Sansu Community Health Center ,126.74626111,35.19221667,5059,흑석
960,671,산수시장,Sansu Market,126.93185029,35.154138,1025,장원초교(서)
961,1953,산제 윗길,Sanje Upside,126.82435,35.01437222,6043,국립나주병원
962,2328,산제 윗길,Sanje Upside,126.82438056,35.01434444,6042,산제 아랫길
963,5,4수원지,Reservoir 4,126.96180824,35.16183377,4264,4수원지위
964,486,라인효친,Line Hyochin Apt.,126.91749463,35.12753538,3118,모아2차아파트
965,497,광산구노인복지회관,Gwangsan-gu Senior Welfare Center,126.81568661,35.17170556,5289,운남삼성아파트
966,545,문흥지구입구(서),Munheung District Entrance (West),126.93346981,35.18960143,4240,문흥금호아파트
967,768,서석고,Seoseok High School,126.88091063,35.15259459,2272,서구청
968,9,4수원지위,Upper of Reservoir 4,126.962349,35.156812,4267,4수원지
969,22,건국동행정복지센터,Geonguk-dong Welfare Center,126.88018611,35.22154722,4006,건국동파출소
970,30,계수,Gyesu,126.85775699,35.16203874,2175,버들마을
971,40,고려고,Korea High School,126.89851617,35.19319995,4251,광주공고입구
972,47,공항역,Airport Station,126.81053715,35.14401842,5203,장암마을
973,66,광신대교,Gwangsindaegyo Bridge,126.8438071,35.17617205,4141,선광학교입구
974,94,중흥삼거리,Jungheung Samgeori,126.91043506,35.16801667,4549,효동초교입구
975,2632,연제현대아파트,Yeonje Hyundai Apt.,126.87263611,35.19788333,4076,연제새한아파트
976,2727,샛터마을,Saetteo Village,126.75668611,35.15102222,5239,호남대광산캠퍼스
977,2872,현대자동차,Hyundai Motors,126.88507778,35.16108625,2051,전남방직
978,2960,농산물공판장,Agricultural Wholesale Market,126.9322225,35.184758,3007,동광주진입로
979,2965,한국수자원공사,Korea Water Resources Corporation,126.84806377,35.15252425,2240,농협운천지점
980,2916,중앙일보,Joongang Daily,126.804703,35.190363,5551,경방
981,2946,양지초교,Yangji Elementary School,126.878839,35.208325,4070,양지마을
982,2948,동아제약,Dong-A Pharmaceutical,126.87571236,35.20657737,4026,양지초교
983,3001,유덕치안센터,Yudeok Police Patrol & Services Center,126.854605,35.165723,2200,유덕동주민센터
984,2617,첨단삼성전자,Cheomdan Samsung Electronics,126.853085,35.225176,4115,산업인력공단
985,2767,교육대,Gwangju National University of Education,126.92340336,35.16366785,4560,풍향삼거리
986,2549,살레시오고입구,Salessio High School Entrance,126.90009913,35.21524379,4470,살레시오고
987,1836,죽림,Jungnim,126.96008611,35.26043333,6153,봉산치안센터
988,3118,서작,Seojak,126.81336379,35.15616564,5286,대덕아파트
989,1521,화순군선거관리위원회,Hwasun-gun Election Commission,126.98011111,35.06338611,6382,이십곡리
990,1504,광주중,Gwangju Middle School,126.85532586,35.12599707,2016,동산교차로(남)
991,2068,원지리,Wonji-li,126.95728056,35.00854444,6299,만수리
992,342,도현,Dohyeon,126.79561389,35.21287778,5511,진곡 동길
993,350,동구노인종합복지관,Donggu General Welfare Center,126.92355833,35.15123333,1016,동구청
994,546,제일장식,Jeil Jangsik,126.99244722,35.05675,6619,화순부영아파트
995,631,무양서원입구,Muyangsewon Confucian Academy Entrance,126.84301409,35.21101409,5432,첨단2동주민센터
996,1022,신가우미아파트,Singa Woomi Apt.,126.83574167,35.18503611,5184,신가중학교
997,346,동강대후문,Dongkang College Back Gate,126.92441667,35.17039722,4161,청명아파트
998,367,동부소방서,Dongbu Fire Station,126.91416667,35.15445278,1117,대인시장(서)
999,550,광주박물관,Gwangju National Museum,126.881921,35.186279,4199,시립민속박물관
1000,635,마재부영아파트,Majae Booyoung Apt.,126.86011485,35.12438991,2025,마재대주아파트
1001,645,북구보건소,Buk-gu Community Health Center,126.91003056,35.17274167,4544,전남대후문(북)
1002,3880,유산교,Yusangyo(Bridge),127.00831629,35.18396874,6435,닭뫼
1003,676,산수2동행정복지센터,Sansu 2(i)-dong Welfare Center,126.93662395,35.15506724,1032,호남맨션
1004,2835,한국국토정보공사,Korea Land and Geospatial Informatix Corp.,126.84864005,35.15638113,2238,한국은행
1005,2843,두암지구입구,Duam District Entrance,126.93078725,35.15917061,1021,산수오거리
1006,762,서방시장(남),Seobang Market (South),126.91981849,35.16634313,4566,동강대
1007,610,오비맥주,Oriental Brewery,126.885392,35.198292,4465,코카콜라
1008,299,대인시장(서),Daein Market (West),126.91631245,35.15333435,1116,동부소방서
1009,2964,남구청,Nam-gu Office,126.902565,35.131575,3206,주월중입구
1010,1226,문화근린공원,Munhwa Neighborhood Park,126.91872452,35.18267938,4242,오정초교입구
1011,2919,첨단부영아파트,Cheomdan Booyoung Apt.,126.84583544,35.2113386,5453,첨단호반3차아파트
1012,2612,경제고용진흥원,Gwangju Economy & Imployment Promotion Agency,126.81444167,35.20901389,5115,삼영특수강
1013,2621,신창호반아파트,Sinchang Hoban Apt.,126.8384294,35.19891934,5113,전자공고
1014,2631,생룡,Saengnyong,126.898809,35.22909,4045,우치공원
1015,685,원삼각마을삼일아파트,Wonsamgak Village Samil Apt.,126.90345556,35.19863611,4258,31사단
1016,705,봉선삼익아파트(북),Bongseon Samik Apt. (North),126.91320946,35.12568039,3127,유안초교
1017,713,일곡삼호아파트,Ilgok Samho Apt.,126.89766388,35.21344929,4580,서일초교
1018,731,상무중,Sangmu Middle School,126.85730144,35.14510584,2079,운천저수지
1019,414,첨단초교,Cheomdan Elementary School,126.83723563,35.21889323,5420,첨단라인아파트
1020,425,럭키아파트,Lucky Apt.,126.87466389,35.13788889,2313,염주체육관
1021,433,폭스존,Fox Zone,126.85292778,35.22012778,4124,정부광주지방합동청사입구
1022,478,매곡삼익아파트,Maegok Samik Apt.,126.89427778,35.18824444,4205,용봉쌍용아파트
1023,493,문흥라인아파트,Munheung Line Apt.,126.92349817,35.18622763,4237,문흥중앙초교
1024,504,무등시장,Mudeung Market,126.89420278,35.13702222,3221,명지맨션
1025,760,서방시장(북),Seobang Market (North),126.91949167,35.16725833,4422,서방시장(남)
1026,8,4수원지위,Upper of Reservoir 4,126.96201944,35.157,4268,화암
1027,3453,송곡,Songgok,126.651841,35.226412,6238,인지
1028,2132,삼도서초교,Samdo Seo Elementary School,126.67210432,35.16040423,5612,삼도삼거리
1029,3150,원천리,Woncheol-li,126.89433611,35.27879722,6121,월인
1030,3344,신야촌,Sinyachon,126.815261,35.121233,2138,도호
1031,3480,두산테크팩,Doosan Techpack,126.80756111,35.20878889,5513,삼영특수강
1032,113,광천치안센터,Gwangcheon Security Center,126.88388917,35.16356535,2004,경신여고
1033,436,롯데칠성,Lotte Chilsung Beverage,126.87598333,35.19896389,4031,KT&G광주제조창
1034,20,건강협회,Association of Health Promotion,126.888435,35.148472,2053,상공회의소
1035,658,첨단금호아파트,Cheomdan Kumho Apt.,126.83622203,35.22144452,5412,신동아아파트
1036,677,산업인력공단,Human Resources Development Service,126.85671944,35.22879077,4037,첨단삼성전자
1037,707,봉선삼익아파트(남),Bongseon Samik Apt. (South),126.912211,35.1244,3125,봉선삼익사거리
1038,718,상림,Sanglim,126.862452,35.270961,6253,작동
1039,742,서광주역,Seogwangju Station,126.84698056,35.12587222,2118,동산교차로
1040,418,첨단도서관,Cheomdan Library,126.8316025,35.21724175,5415,월계중
1041,430,롯데백화점,Lotte Department Store,126.91095556,35.15438611,1119,대인광장(동)
1042,438,마당고개,Madang Pass,126.877275,35.19090833,4452,박물관입구
1043,471,말바우시장(동),Malbau Market (East),126.92448237,35.17248039,4164,말바우시장(서)
1044,492,송정모아아파트,Songjeong Moa Apt.,126.80193056,35.14116667,5150,상전
1045,500,광주기아챔피언스필드,Gwangju-Kia Champions Field,126.890658,35.168471,4489,경신여고
1046,754,응암공원,Eungam Park,126.83445556,35.21612385,5406,첨단라인아파트
1047,779,석동,Seokdong ,126.73693056,35.23015556,5347,월봉서원입구
1048,18,거진,Geojin,126.874294,35.211923,4003,신흥택시
1049,27,계림초교후문,Gyerim Elementary School Back Gate,126.92351667,35.16050833,1011,동진맨션
1050,37,31사단,31st Infantry Division,126.90432127,35.19445571,4356,원삼각마을삼일아파트
1051,46,농협공판장,Nonghyup Joint Market,126.9,35.15246111,3192,돌고개역(동)
1052,64,광산중,Gwangsan Middle School,126.80773611,35.15905833,5272,소촌금호아파트
1053,78,금호타운아파트,Kumhotown Apt.,126.896849,35.10966,3227,효덕초교
1054,88,광주역,Gwangju Station,126.90697222,35.16468333,4333,삼성콜센터
1055,2523,반촌,Banchon,126.85135239,35.19167322,5170,산동교
1056,3501,박호동,Bakho-dong,126.740477,35.164088,5235,송산유원지(종점)
1057,3278,교동,Gyodong,126.950687,35.0899701,1072,용연정수장
1058,3308,삼각호반아파트,Samgak Hoban Apt.,126.901485,35.19342,4257,오치1동주민센터
1059,461,정부광주지방합동청사입구,Gwangju Regional Government Complex Entrance,126.849317,35.221945,4125,정부광주지방합동청사
1060,487,모아2차아파트,Moa 2nd Apt.,126.91415948,35.12795817,3107,라인효친
1061,498,광산구노인복지회관,Gwangsan-gu Senior Welfare Center,126.81539254,35.1719301,5290,영천초교
1062,748,서구문화센터,Seo-gu Culture Center,126.85938,35.131391,2031,마재대주아파트
1063,300,대인시장(서),Daein Market (West),126.91710574,35.15262455,1115,전남여고
1064,304,풍암모아아파트,Pungam Moa Apt.,126.8757956,35.12522382,2258,풍암저수지
1065,310,국립광주과학관,Gwangju National Science Museum,126.850404,35.227761,4023,정부광주지방합동청사
1066,324,덕촌,Deokchon,126.84105,35.26277222,6248,평촌
1067,332,도선사,Doseonsa Temple,126.93462189,35.19558435,4226,도동고개
1068,1441,산업인력공단사거리,Human Resources Development Service Sageori,126.85788841,35.22799577,4040,한국광기술원
1069,1452,한보요업,Hanbo Ceramics,126.999311,35.047089,6375,정수장입구
1070,1465,오치한전옆,Side of Ochi KEPCO,126.90713812,35.18428916,4362,도로교통공단 대신파크
1071,1475,방림교,Bangnimgyo Bridge,126.92538889,35.13250556,3083,학림교
1072,2174,용곡입구,Yonggok Entrance,126.74482222,35.12630904,5478,기곡
1073,2111,화순시장,Hwasun Market,126.98261389,35.059575,6388,화순주유소
1074,1851,만화동,Manhwadong,126.93595833,35.29077778,6169,나산리
1075,1862,갑향리,Gaphyang-li,126.90224722,35.28618611,6107,병풍리
1076,1887,공원묘지,Cemetery Park,126.93509722,35.23518889,4271,국립5.18민주묘지
1077,1900,원유동,Wonyudong,126.95373611,35.24354722,6088,담양월곡
1078,1918,인성고,Inseong High School,126.87879195,35.1034968,3167,송암동
1079,1934,대촌동행정복지센터,Daechon-dong Welfare Center,126.834087,35.081208,3008,도촌
1080,1943,나주축산농협,Naju Livestock Agricultural Cooperative Federation,126.84263333,35.04544167,6008,연합의원
1081,213,남광주역,Namgwangju Station,126.92188371,35.13859678,1141,양림휴먼시아2차
1082,1487,화정현대아파트,Hwajeong Hyundai Apt.,126.87674722,35.15393611,2286,기아자동차
1083,374,동성고,Dongseong High School,126.89751225,35.11437558,3241,대성여고
1084,380,동강대,Dongkang College,126.92103246,35.1696557,4564,말바우시장(서)
1085,387,동진맨션,Dongjin Mansion Apt.,126.92800278,35.15838056,1013,계림초교후문
1086,933,양곡,Yanggok,126.68282222,35.20135556,5070,구룡(본량)
1087,1077,금당중,Keumdang Middle School,126.8875342,35.13089696,3220,원광대한방병원
1088,784,성내,Seongnae,126.749867,35.218044,5350,임곡역
1089,793,새한철강,Saehan Steel,126.81044167,35.21331944,5520,한국단자공업
1090,796,만연빌딩,Manyeon Building ,126.98888611,35.05571667,6345,화순미륭아파트
1091,797,지원2동주민센터(남),Jiwon 2-dong Community Service Center(South),126.93280153,35.12003476,1097,녹동
1092,801,송림주택,Songnim Jutaek Apt. ,126.91798889,35.13108611,3089,라인효친
1093,807,광천E편한세상,Gwangcheon e-Pyeonhan Sesang Apt.,126.87642778,35.16591944,2181,진성아파트
1094,812,송정I.C,Songjeong IC,126.807575,35.147046,5207,아리랑고개
1095,816,송정시장,Songjeong Market,126.7975,35.138064,5161,송정대덕아파트
1096,819,송정한전,Songjeong KEPCO,126.788225,35.14934444,5256,금호타이어
1097,833,중흥초교,Jungheung Elementary School,126.91367433,35.16291929,4533,중흥1동주민센터
1098,849,우산시영2단지(서),Usan Siyeong Apt. Complex 2 (West),126.80110891,35.15994093,5284,광주여대
1099,859,신당,Sindang,126.73469167,35.184975,5065,본량파출소
1100,878,북광주수협,Bukgwangju Suhyup,126.90179167,35.16508333,4582,서림초교입구
1101,890,보건대입구,Health University Entrance,126.84934253,35.19320672,5172,반촌
1102,906,가톨릭대평생교육원,Cathlic University Lifelong Education Institute,126.87083152,35.14939064,2082,상무1동주민센터
1103,926,광주은행북부지점,Kwangju Bank Bukbu Branch,126.90387394,35.15610205,4510,광주일고
1104,1053,목련마을6단지,Mongryeon Village Apt. Complex 6,126.817813,35.176518,5297,수완중흥S-클래스 1차
1105,1112,월산초교,Wolsan Elementary School,126.89778611,35.1469,3203,동신대한방병원
1106,3014,진월저수지(서),Jinwol Reservoir (West),126.90448927,35.11357282,3244,효덕동주민센터
1107,301,대주빌라,Daeju Villa,126.93731944,35.17001111,4184,두암라인동산아파트
1108,329,도산역,Dosan Station,126.78749397,35.13084982,5008,신동사거리
1109,1447,풍암한국아파트,Pungam Hanguk Apt.,126.88072251,35.1211601,2266,풍암한신아파트
1110,679,살레시오고,Salesian High School,126.89463611,35.21667778,4466,살레시오고
1111,2131,삼도삼거리,Samdo Samgeori,126.674568,35.163468,5634,삼암
1112,219,삼영특수강,Samyeong Specialty Steel,126.81021389,35.20899722,5519,두산테크택
1113,716,상공회의소,Chamber of Commerce & industry,126.88569875,35.15148538,2057,건강협회
1114,729,상무역,Sangmu Station,126.84756291,35.14598712,2117,상무지구입구
1115,1932,상지석,Sangjiseok,126.84055038,35.0866645,3022,하지석
1116,405,샛터코아,Saetteo Core Building,126.92107231,35.18572251,4247,문흥명지아파트
1117,753,서남하이츠(국제양궁장),International Archery Field,126.8906022,35.13190059,3225,금당중
1118,583,서일초교,Seoil Elementary School,126.897828,35.211237,4468,일곡삼호아파트
1119,2192,서창치안센터,Seochang Police Patrol & Services Center,126.8210601,35.107438,2135,중촌
1120,3101,석수정,Seoksujeong ,126.87225967,35.2418694,4047,신용마을
1121,1592,선암,Seonam,126.77270392,35.15079313,5243,호남대광산캠퍼스
1122,787,성산맨션,Seongsan Mansion Apt.,126.9114069,35.18134839,4386,도로교통공단 대신파크
1123,1610,송산,Songsan,126.71639167,35.15880921,5139,동백훈련장
1124,804,광산경찰서,Gwangsan Police Station,126.78534722,35.15111389,5252,송정한전
1125,826,송정파출소(남),Songjeong Police Box (South),126.80357222,35.14315276,5152,공항역
1126,3472,수북,Subuk,126.91986111,35.30765,6171,포백
1127,1926,수춘,Suchun,126.867308,35.085224,3032,이장1동
1128,2264,시목,Simok,126.889941,35.260523,6117,태목
1129,3401,신광,Shingwang,126.81748889,35.12943611,5211,구야촌
1130,865,신세계백화점(북),Shinsegae Department Store (North),126.88343707,35.15954254,2275,광천파출소
1131,1299,광주지방기상청,Gwangju Regional Meteorological Administration,126.89066427,35.17243229,4447,경신여고
1132,275,닭전머리,Dakjeonmeori,126.90193477,35.15133728,3193,우진아파트
1133,815,송정시장,Songjeong Market,126.79751389,35.13823611,5160,영광통사거리
1134,840,상무시민공원,Sangmu Park,126.838644,35.15369,2221,5.18자유공원
1135,911,양산초교입구,Yangsan Elementary School Entrance,126.87391591,35.20849987,4057,광주은행양산동지점
1136,17,거진,Geojin,126.87456284,35.21177326,4004,신용두
1137,24,경방,Gyeongbang,126.80445,35.19476389,5495,유니스전자
1138,45,공군부대,Air Unit ,126.78661551,35.12591549,5002,상선
1139,60,광산구청,Gwangsan-gu Office ,126.79342375,35.14008534,5217,영광통
1140,86,광주여대,Kwangju Women's University,126.80163054,35.16535953,5273,광산우산동주민센터
1141,103,마재호반아파트,Majae Hoban Apt.,126.855992,35.126394,2029,마재호반아파트(정문)
1142,3414,상무라인대주,Sangmu Line Daeju Apt.,126.8450302,35.14813802,2219,5.18자유공원
1143,714,삼화교,Samhwagyo Bridge,126.736719,35.223121,5343,연계삼거리
1144,3583,백제화학,Baekje Chemical,126.797165,35.1885001,5647,제일화학
1145,3594,농산물품질관리원,National Agricultural Products Quality Management Service,126.84700833,35.21788889,5656,첨단우리은행
1146,3606,영락공원2단지,Yeongnak Cemetery Park Complex 2,126.920572,35.230427,4595,영락공원
1147,3616,송화마을4단지,Songhwa Village Apt. Complex 4,126.90452456,35.10713022,3259,송화마을3단지
1148,1032,우산동중흥S클래스,Usan-dong Jungheung S-Class,126.81015958,35.15195833,5269,상수도광산사업소
1149,3765,광주지방경찰청,Gwangju Metropolitan Police Agency,126.7994912,35.15436081,5693,광주지방경찰청입구
1150,3098,신용마을,Sinyong Village,126.879507,35.244156,4055,용산마을
1151,3520,안청농협,Ancheong Nonghyup,126.80143611,35.21676111,5533,안청
1152,263,능주면사무소,Neungjumyeon Office ,126.95863056,34.99006944,6288,능주사거리
1153,646,북부경찰서,Bukbu Police Station,126.90018889,35.18719677,4368,오치주공
1154,501,광주기아챔피언스필드입구,Gwangju-Kia Champions Field Entrance,126.89172222,35.16871111,4336,태봉새마을금고
1155,3587,기아차하남공장,Kia Motors Hanam Forwarding Office,126.799985,35.20874,5650,금호전기
1156,3596,무등교회,Mudeung Church,126.84761,35.12773,2325,만호마을
1157,3608,김대중컨벤션센터(마륵)역(북),Kimdaejung Convention Center (Mareuk) Station (North),126.84101685,35.14403698,2328,김대중컨벤션센터
1158,3620,진월저수지(동),Jinwol Reservoir (East),126.90410072,35.11284619,3260,송화마을3단지
1159,1483,현대아파트,Hyundai Apt.,126.91861111,35.17892778,4426,주공아파트
1160,1559,오선동,Oseon-dong,126.795325,35.20045556,5537,진곡 동길
1161,791,성촌마을.전통문화관,Seongchon Village/Traditional Literature Museum,126.95281389,35.13403056,1158,학운초교
1162,855,신가동,Singa-dong,126.82571782,35.17919134,5304,목련마을
1163,889,신가주공아파트,Singa Jugong Apt.,126.832774,35.1842201,5185,신가우미아파트
1164,971,대촌마을,Daechon Village,126.85459167,35.23569722,4044,대촌마을입구
1165,990,와산,Wasan,126.73031944,35.24087778,5367,종점
1166,513,도산동행정복지센터,Dosan-dong Welfare Center,126.79239675,35.12873099,5015,송정호반아파트
1167,541,문흥고가,Munheung Overpass,126.928675,35.18144444,4180,광주병원
1168,308,비엔날레전시관입구,Biennale Exhibition Hall Entrance,126.88998056,35.18045833,4382,용봉현대1차아파트
1169,1734,운리마을,Ulli Village ,126.86776944,35.11521389,2250,동명회/송원고
1170,1456,동구문화센터,Dong-gu Culture Center,126.930109,35.128587,1107,광주남초교
1171,1760,대동고,Daedong High School,126.84894167,35.11417222,2099,매월동(북)
1172,1497,상무호반3차,Sangmu Hoban 3rd Apt.,126.86329493,35.1597497,2069,광명하이츠후문
1173,1026,상수도광산사업소,Gwangsan Waterworks Office,126.80996639,35.15655657,5267,우산리버힐아파트
1174,408,두암라인동산아파트,Duam Line Dongsan Apt.,126.93538889,35.17166111,4185,문화초교
1175,1055,운림중,Unlim Middle School,126.943161,35.132085,1161,학운초교
1176,1246,두암주공아파트,Duam Jugong Apt.,126.93689167,35.163625,4187,율곡초교
1177,1085,장성월곡,Jangseong Wolgok,126.81531944,35.24110556,6219,월정(장성)
1178,1200,전남대스포츠센터,Chonnam National University Sport Center,126.91270891,35.17496564,4407,전남대후문위
1179,877,신안사거리,Sinan Sageori,126.90413506,35.16570642,4343,북광주수협
1180,149,극락강역입구,Geungnakgang Station Entrance,126.82913621,35.17898725,5169,신가동
1181,904,신촌 아랫길(4수원지),World Cup stadium parking lot,126.96102778,35.17943056,4294,등촌
1182,958,연진회미술원,Yeonjinhoe Academy Of Art,126.938669,35.132004,1101,운림중
1183,2893,동림I.C입구,Dongnim IC Entrance,126.852454,35.173816,4143,동천마을1단지
1184,303,마재대주아파트,Majae Daeju Apt.,126.85752347,35.12739852,2024,마재부영아파트
1185,322,덕성,Deokseong,126.7791701,35.256539,6200,자풍
1186,977,예술의거리입구,Art Street Entrance,126.91694799,35.15128889,1127,대인시장(동)
1187,1010,용산교(동구),Yongsangyo Bridge (Dong-gu),126.93121944,35.12071111,1102,지원2동주민센터
1188,535,문화초교,Munhwa Elementary School,126.93278611,35.17255278,4179,신흥맨션
1189,1744,대성여고,Daesung Girls' High School,126.89849453,35.11800804,3235,동성고
1190,1783,구소,Guso,126.81184444,35.05319167,3003,
1191,1044,금구중,Geumgu Middle School,126.81540881,35.17597077,5629,운남삼성아파트
1192,1063,운암중,Unam Middle School,126.87382214,35.18115292,4458,운암우미아파트
1193,1100,월산(본량),Wolsan (Bollyang),126.6813201,35.198506,5077,양곡
1194,1682,산정(나주),Sanjeong(Naju),126.73772222,35.05343056,6060,천동입구
1195,759,서방시장(서),Seobang Market (West),126.91827969,35.16717616,4423,향토문화거리입구
1196,1375,광천동,Gwangcheon-dong,126.8667499,35.16630349,2178,칠성마을
1197,1119,일곡현대3차아파트,Ilgok Hyundai 3rd Apt.,126.90104444,35.21094167,4609,일곡대림2차아파트
1198,1144,광일고,Kwangil High School,126.742975,35.21991111,5328,원임곡
1199,1153,임동행정복지센터,Im-dong Welfare Center,126.89426111,35.16533889,4498,임동농협
1200,1169,검문소,Checkpoint,126.78302222,35.13606944,5460,장록
1201,1190,용봉쌍용아파트,Yongbong Ssangyong Apt.,126.888715,35.187402,4208,중외마을
1202,1206,전남대사거리(동),Chonnam National University Sageori (East),126.90446111,35.16846389,4349,중흥삼거리(북)
1203,1223,제석초교,Jeseok Elementary School,126.90741877,35.12781901,3113,봉선대화아파트
1204,1234,조선대공과대학,Chosun University College of Engineering,126.92461983,35.1419057,1148,조선대
1205,1247,용두주공,Yongdu Jugong Apt.,126.87057261,35.21273647,4085,복룡입구
1206,1253,신가주공아파트,Singa Jugong Apt.,126.83241783,35.18447371,5186,신가사거리
1207,1604,운평,Unpyeong,126.7316301,35.153135,5144,가삼
1208,1618,봉정,Bongjeong,126.69377683,35.16362615,5617,금복중
1209,1636,상무자동차학원,Sangmoo Driving Academy,126.65930881,35.14866681,5601,용성자동차학원
1210,1641,가산,Gasan,126.67896207,35.13025933,5585,대산삼거리
1211,1653,명동삼거리,Myeongdong Samgeori,126.71575,35.12132778,5047,명화동
1212,1657,도야,Doya,126.68923333,35.12576667,5131,신광(삼도)
1213,1676,용봉입구,Yongbong Entrance,126.76720728,35.08124794,5019,창교
1214,1688,나주중앙병원,Naju Police Station,126.72008037,35.03568107,6048,나주터미널
1215,1693,성북육교,Seongbuk Overpass,126.71695,35.03628333,6062,나주금성고
1216,1710,평호동,Pyeonghodong,126.77895748,35.10690436,5026,하선
1217,1716,서창사거리,Seochang Sageori,126.831185,35.139377,2129,서창농협 벽진지점
1218,1383,가야농원,Gaya Nongwon,126.93017222,35.12352222,1091,용산교(동구)
1219,1395,풍암정,Pungamjeong Pavilion,126.98708851,35.16032836,4330,안양사
1220,1419,단전,Danjeon,126.796555,35.183635,5505,하남홈플러스
1221,1432,학림교,Hangnimgyo Bridge,126.921311,35.135827,3082,방림삼거리
1222,573,유덕초교,Yudeok Elementary School,126.86330392,35.16465058,2197,광명하이츠후문
1223,1709,유림,Yurim,126.77811083,35.10179577,5022,평호동
1224,992,외등,Oedeung,126.75323611,35.18409722,5368,노동
1225,1015,용전,Yongjeon,126.896128,35.238618,4598,지산입구
1226,515,각화무등파크,Gakhwa Mudeung Park Apt.,126.93494722,35.17863056,4173,신흥맨션
1227,536,문흥명지아파트,Munheung Myeongji Apt.,126.92434195,35.1840342,4231,샛터코아
1228,544,문흥중앙초교,Munheung Jungang Elementary School,126.92166283,35.18349606,4245,문흥라인아파트
1229,1748,송암공단입구,Songam Industrial Complex Entrance,126.87844569,35.10890044,3156,송원대학
1230,1768,개동,Gaedong,126.82743114,35.09238403,3002,대촌한일베라체
1231,1793,농막,Nongmak,126.8077101,35.082686,3006,시산
1232,614,봉선1동행정복지센터,Bongseon 1(il)-dong Welfare Center,126.9108454,35.13105494,3108,양림휴먼시아1차
1233,1264,주월초교,Juwol Elementary School,126.883922,35.143225,2293,월산마을
1234,1272,동천마을3단지,Dongcheon Village Apt. Complex 3,126.86315756,35.17189078,4150,동림우미린아파트
1235,1285,중흥1동행정복지센터,Jungheung 1(il)-dong Welfare Center,126.91495546,35.16166038,4535,순복음교회
1236,1791,화장앞길,Hwajang Front Road,126.803746,35.074001,3077,화장뒷길
1237,3882,진남초교,Jinnam Elemantary School,126.90292597,35.10813957,3277,송화마을5단지
1238,559,백동,Baekdong,127.00696389,35.04063889,6318,용생
1239,572,백화아파트,Baekhwa Apt.,126.92715278,35.12998056,1144,방림교
1240,588,벽파정,Byeokpajeong,126.76686111,35.2035,5336,산막
1241,603,복룡입구,Bongnyong Entrance,126.864254,35.214279,4032,용두주공
1242,627,매곡대화아파트,Maegok Daehwa Apt.,126.892235,35.1921001,4204,매곡삼익아파트
1243,1267,금호모아아파트,Kumho Moa Apt.,126.86447069,35.13246872,2022,월드컵경기장
1244,1279,문화예술회관,Culture & Art Center,126.881908,35.175469,4442,운암3단지
1245,1306,건국동파출소,Geonguk-dong Police Box,126.87898257,35.21918586,4002,건국동주민센터
1246,1316,송정대덕아파트,Songjeong Daedeok Apt.,126.7978591,35.13588933,5156,송정초등학교
1247,1268,죽곡(북),Jukgok (North),126.952969,35.204492,4320,동초교
1248,1283,중외마을,Jungoe Village,126.89355278,35.18731389,4213,용봉주공
1249,1290,효동초교입구,Hyodong Elementary School Entrance,126.91126321,35.17070672,4552,광주역육교
1250,1307,건국동파출소,Geonguk-dong Police Box,126.87869722,35.21922222,4001,지산중학교
1251,1324,대성여고,Daesung Girls' High School,126.89903524,35.11849223,3236,진월대주아파트
1252,1001,용봉동성당,Yongbong-dong Catholic Church,126.89530938,35.17926641,4584,유창아파트
1253,510,소태역,Sotae Station,126.93259416,35.12330497,1096,광주남초교
1254,519,무양서원,Muyangsewon Confucian Academy,126.84048994,35.2088766,5429,방송통신대
1255,523,문산중,Munsan Middle School,126.92362021,35.19007736,4227,문흥금호아파트
1256,531,문화중,Munhwa Middle School,126.92346389,35.17749722,4419,광주병원
1257,539,문흥1동행정복지센터,Munheung 1(il)-dong Welfare Center,126.921275,35.18735556,4230,샛터코아
1258,1733,매월종합상가입구,Maewol Shopping Complex Entrance,126.860707,35.12001,2094,운리마을
1259,1738,송암공단입구,Songam Industrial Complex Entrance,126.87846895,35.10852441,3155,남선산업
1260,1758,공구단지,Tools Market,126.858067,35.119337,2093,화훼단지
1261,1770,지석사거리,Jiseok Sageori,126.83341887,35.081075,3059,도촌
1262,1785,양촌(대촌),Yangchon(Daechon),126.79377778,35.06163611,3043,유촌
1263,295,상무대우아파트,Sangmu Daewoo Apt.,126.84751841,35.15730306,2217,시청
1264,309,마재대주아파트,Majae Daeju Apt.,126.85778249,35.12749369,2023,서구문화센터
1265,330,도산파출소,Dosan Police Box,126.78548372,35.12873917,5007,도산동
1266,1449,계수초교,Gyesu Elementary School,126.845445,35.1553101,2231,상무지구
1267,1464,소촌서라아파트,Sochon Seora Apt.,126.79039722,35.14681944,5246,중앙초교
1268,1470,해태아파트,Haitai Apt.,126.87376389,35.15765556,2206,한국병원
1269,1485,쌍촌현대아파트,Ssangchon Hyundai Apt.,126.86629636,35.15775614,2071,솔뫼타운
1270,1502,송정호반아파트,Songjeong Hoban Apt.,126.78973695,35.12682613,5012,도산동주민센터
1271,1198,전남학숙,Jeonnam Boardinghouse,126.90893149,35.05250993,6442,앵남역
1272,1222,제석초교,Jeseok Elementary School,126.90693333,35.12769722,3112,봉선라인광장
1273,1233,서남동행정복지센터,Seonam-dong Welfare Center,126.92377892,35.14500775,1050,문화전당역
1274,1239,마재종원아파트,Majae Jongwon Apt.,126.8552,35.129686,2028,서구문화센터
1275,1251,하남중,Hanam Middle School,126.80305278,35.16654444,5288,월곡일신아파트
1276,1599,송산유원지,Songsan Recreation Area,126.73818611,35.15833611,5251,송산유원지(종점)
1277,1611,동백훈련장,Dongbaek Army Training Center ,126.71120824,35.159738,5133,지동(광산구)
1278,1640,가산(북),Gasan(North),126.67716954,35.13410027,5587,가산
1279,1647,광산구유스호스텔,Gwangsan-gu Youth Hostel,126.684725,35.11645278,5122,내기마을
1280,1656,회룡(광산구),Hoeryong (Gwangsan-gu),126.69576389,35.123975,5493,도야
1281,1671,평호동,Pyeonghodong,126.77884051,35.10756476,5025,유림
1282,1681,동산마을,Dongsanmaeul(Naju),126.74904444,35.06156944,6021,산정(나주)
1283,1704,성산마을,Seongsanmaeul,126.759077,35.0738601,6023,용봉입구
1284,1713,공항,Airport,126.81082441,35.14145893,5628,장암마을
1285,1724,대동고,Daedong High School,126.8484592,35.11359568,2100,화훼단지
1286,1390,산정중입구,Sanjeong Middle School Entrance,126.802754,35.170228,5566,하남중
1287,1417,풍암저수지,Pungam Reservoir,126.87013889,35.12559167,2264,풍암모아아파트
1288,1426,양림교,Yangnimgyo Bridge,126.91746447,35.14193626,1145,서남대병원
1289,1092,월곡시장,Wolgok Market,126.80913532,35.17148889,5315,월곡일신아파트
1290,1358,화순미륭아파트,Hwasun Miryung Apt,126.992526,35.0581901,6380,화순부영3차아파트
1291,479,매화동(장성),Maehwadong(Jangseong),126.82736111,35.2669,6250,진원초교
1292,1379,코카콜라,Coca-Cola,126.87891944,35.197675,4118,오비맥주
1293,577,법림사,Beomnimsa Temple,126.93560556,35.08683056,1085,내남
1294,491,송정모아아파트,Songjeong Moa Apt.,126.802,35.141075,5151,송정파출소(남)
1295,1079,산막,Sanmak,126.767201,35.198255,5341,신등
1296,750,서구청,Seo-gu Office,126.889771,35.151529,2050,상록회관
1297,873,신안동행정복지센터,Sinan-dong Welfare Center,126.89848889,35.16692222,4341,신안사거리
1298,675,산수동우체국,Sansu-dong Post Office ,126.93116925,35.15545146,1022,동진맨션
1299,1961,팔마아파트,Palma Apt,126.83212222,35.02608056,6047,남평미래병원
1300,1971,하지석,Hajiseok,126.83659159,35.0835525,3064,상지석
1301,1899,송강정종점,Songgangjeong ,126.95364444,35.25305,6138,양지분교
1302,1257,주도리,Judori,126.93735278,35.03240556,6372,주도리3구
1303,1609,가삼,Gasam,126.72201312,35.15667177,5119,송산
1304,1622,삼도서초교,Samdo Seo Elementary School,126.67200566,35.16038727,5611,칠성
1305,1630,대야,Daeya,126.67339904,35.13731884,5589,우치
1306,1654,월곡마을,Wolgok Village,126.70770862,35.12446316,5636,연동
1307,1662,축산시험장,Livestock Experiment Station,126.7353067,35.12379239,5484,용강입구
1308,1680,노안남초교,Noan nam Elementary School,126.75178056,35.06661389,6019,노안교회(광신여객하행)
1309,1695,나주금성고,Naju Geumseong High School,126.71498889,35.03865278,6050,성북육교
1310,1717,서창농협 벽진지점,Seochang Nonghyup Byeokjin Branch,126.83047222,35.13313611,2125,마산(서창)
1311,1388,영천마을9단지,Yeongcheon Village Apt. Complex 9,126.80839567,35.17549401,5319,월곡시장
1312,1413,마재우체국,Majae Post Office,126.86491667,35.12419167,2246,풍암저수지
1313,1423,하남철강,Hanam Steel,126.80050556,35.21323611,5568,안청농협
1314,1440,산업인력공단사거리,Human Resources Development Service Sageori,126.85768056,35.22811667,4039,구신한포토닉스
1315,520,무진중,Mujin Middle School,126.90051667,35.144625,3199,월산초교
1316,3477,마현,Mahyeon,126.81492884,35.09537533,2107,신용
1317,1595,서봉마을,Seobong Village,126.7502816,35.15194562,5241,동명고
1318,84,광주병원,Gwangju Hospital,126.92926944,35.17897778,4171,무등도서관
1319,1735,동명회.송원고,DongMyung Welfare Society / Songwon High School,126.86989167,35.11401111,2243,송원대학
1320,3884,송화마을5단지,Songhwa Village Apt. Complex 5,126.90640522,35.10628526,3275,진월남양휴튼
1321,1436,한국광기술원,Korea Photonics Technology Institute,126.85864904,35.23303689,4129,대촌마을입구
1322,598,보훈병원,Veterans Hospital,126.84870278,35.20674167,5436,전자공고
1323,617,봉선라인아파트,Bongseon Line Apt.,126.90940556,35.12568056,3124,봉선대화아파트
1324,1087,월곡2동행정복지센터,Wolgok 2(i)-dong Welfare Center,126.8056657,35.17241868,5540,하남중앙초교입구
1325,792,세량리,Seryang-li,126.91388611,35.07386389,6357,노대
1326,975,예림,Yerim,126.69509722,35.16957222,5068,평림
1327,1023,신가우미아파트,Singa Woomi Apt.,126.83618074,35.18525231,5183,신가주공아파트
1328,1962,남평미래병원,Nampyeong Mirae Hospital,126.833065,35.027894,6037,방축마을
1329,91,광주역,Gwangju Station,126.90746629,35.16480847,4334,신안사거리
1330,1794,시산,Sisan,126.8078,35.08595278,3039,석정
1331,3881,송화마을1단지,Songhwa Village Apt. Complex 1,126.89975827,35.10916208,3276,진남초교
1332,563,장성백운,Jangseong Baegun,126.781448,35.244101,6216,해령
1333,584,벽송,Byeoksong,127.08204722,35.01184444,6277,벽송저수지
1334,594,보훈병원후문,Veterans Hospital Back Gate,126.84951111,35.20870556,5437,첨단생활체육공원
1335,1920,광곡입구,Gwanggok Entrance,126.87064,35.100902,3146,임정
1336,1061,운암3단지,Unam Apt. Complex 3,126.875667,35.179035,4455,운암벽산블루밍
1337,1773,대지동상촌,Daejidong-sangchon,126.82255278,35.07400833,3024,하촌
1338,1799,봉학,Bonghak,126.81881167,35.09855055,2113,용두입구
1339,667,사평초교,Sapyeong Elementary School,127.09336111,35.00765,6282,남면사무소
1340,1958,행정,HaengJeong ,126.821712,35.003201,6033,산림자원연구소
1341,1968,하칠석.고싸움전수관,Hachilseok.Gossaum Training Center,126.83541619,35.06979157,3027,상칠석
1342,1340,고내입구,Gonae Entrance,126.86047021,35.23800462,4007,대촌마을입구
1343,1351,광주교통방송,Gwangju TBN,126.84559722,35.22179167,5394,정부광주지방합동청사
1344,1374,광천동,Gwangcheon-dong,126.86708783,35.16609779,2179,삼우아파트
1345,1129,은혜학교,Eunhae School,126.85015,35.232625,4097,앰코코리아
1346,1143,임곡교,Imgokgyo Bridge,126.75208333,35.20766667,5079,맥동
1347,1151,임동농협,Im-dong Nonghyup,126.8972,35.162948,4496,북성중
1348,1168,검문소,Checkpoint,126.78293056,35.13599722,5461,신덕마을
1349,1187,시립민속박물관,Folk Museum,126.886396,35.186633,4202,광주박물관
1350,1201,전남대동문,Chonnam National University East Gate,126.91225278,35.17645278,4408,북구보건소
1351,1978,송암동,Songam-dong,126.87763363,35.09901422,3157,인성고
1352,1895,와우리,Wauri,126.93424167,35.25305556,6147,양지
1353,259,장성남면농협,Jangseong Nammyeon  Agricultural Cooperative Federation,126.81131944,35.24169722,6211,장성남중
1354,1814,연동(담양),Yeondong,126.99174167,35.22497222,6085,산덕
1355,1989,고룡정보산업학교,Goryong Information Industry School,126.767451,35.207723,5326,창암
1356,1995,내등,Naedeung,126.76175833,35.18899167,5329,신봉정
1357,1868,시목,Simok,126.88981389,35.26055556,6118,응기
1358,68,광신아파트,Gwangsin Apt.,126.92885508,35.17614049,4169,문화아파트
1359,2082,자풍,Japung,126.771775,35.250444,6210,덕성
1360,2110,대리교통광장(서),Daeri Traffic plaza(West),126.97127701,35.05310402,6344,화순제일중
1361,1938,어전,Eojeon,126.835104,35.058647,6016,평산리
1362,2126,송산,Songsan,126.71640316,35.15867881,5138,가삼
1363,1018,운암우미아파트,Unam Woomi Apt.,126.87142222,35.18323056,4457,운암중
1364,344,돌고개역(동),Dolgogae Station (East),126.8963,35.15223056,2164,돌고개역(서)
1365,549,박물관입구,Museum Entrance,126.87992222,35.18716389,4206,체육고/폴리텍5대학
1366,377,동신대한방병원,Dongshin University Oriental Hospital,126.896445,35.150058,3197,돌고개역(서)
1367,643,북구청,Buk-gu Office,126.914354,35.17349,4553,북구보건소
1368,652,비아농협,Bia Nonghyup,126.82472394,35.22198525,5095,동원촌
1369,710,삼정초교,Samjeong Elementary School,126.93703611,35.16598333,4191,두암주공아파트
1370,669,산동교,Sandonggyo Bridge,126.85770698,35.18932721,5177,동림푸른마을
1371,1327,진원초교,Jinwon Elementary School,126.82222222,35.26213333,6267,수촌
1372,725,상무병원,Sangmoo Hospital,126.85504444,35.15251389,2220,5.18기념공원
1373,553,방림교,Bangnimgyo Bridge,126.92309444,35.13380278,1143,우영아파트
1374,2004,만수리,Mansu-li,126.95351111,35.01251667,6295,수동
1375,2024,벽파정,Byeokpajeong,126.76687778,35.20341944,5335,연동 서길
1376,2038,삼화교,Samhwagyo Bridge,126.736757,35.222799,5372,원임곡
1377,2055,연계삼거리,Yeongye Samgeori,126.73575,35.22588611,5359,삼화교
1378,1508,첨단생활체육공원,Cheomdan Sports Park,126.85128056,35.21011111,5456,보훈병원후문
1379,1543,화정남초교,Hwajeong Nam Elementary School,126.87298611,35.13895278,2315,럭키아파트
1380,1569,흑석사거리(서),Heukseok Sageori (West),126.807363,35.180224,5579,하남초교
1381,1983,문성석재,Munseong Stone,127.07686111,35.02164167,6315,벽송저수지
1382,764,서광주전화국,KT Seogwangju District Office,126.894222,35.153437,2046,돌고개역(동)
1383,2141,우치,Uchi,126.66716705,35.13834269,5592,대야
1384,146,버들주공1단지,Beodeul Jugong Apt. Complex 1,126.86061944,35.16631944,2183,칠성마을
1385,1797,구룡(대촌),Guryong (Daechon),126.81364655,35.09470918,2096,마현
1386,561,백암,Baegam,126.95097222,35.0247,6347,수동
1387,581,벽라리(화순역),Byeongna-ri (Hwasun Station),126.96624167,35.05313611,6352,화순역
1388,591,보건대후문,Health University Back Gate,126.84337247,35.19220379,5175,신창부영1차아파트
1389,611,오비맥주,Oriental Brewery,126.88447222,35.19786111,4034,향토음식박물관
1390,1260,주월주택단지,Juwol Housing Area,126.89847902,35.13571228,3105,신우아파트
1391,1060,운암3단지,Unam Apt. Complex 3,126.8772001,35.178302,4432,운암초교
1392,1075,원광대한방병원,Wonkwang University Medical Center,126.88529655,35.12963409,2251,풍암우미아파트
1393,1099,월산(삼각동),Wolsan (Samgak-dong),126.90148611,35.20457222,4471,일곡청솔4차아파트
1394,1701,산정(나주),Sanjeong(Naju),126.73786667,35.05332222,6059,동산마을
1395,2785,광주공원,Gwangju Park,126.909825,35.14842222,3137,충장치안센터
1396,2786,양림교,Yangnimgyo Bridge,126.91776811,35.14038552,3174,학강초교
1397,224,광주남초교,Gwangju Nam Elementary School,126.93147328,35.12635936,1093,동구문화센터
1398,284,대반초교,Daeban Elementary School,126.81011234,35.17505945,5317,월곡시장
1399,321,덕산아파트,Deoksan Apt.,126.93163611,35.16895556,4160,청명아파트
1400,1469,해태아파트,Haitai Apt.,126.87483889,35.15745278,2279,기아자동차
1401,1069,운천저수지,Uncheon Reservoir,126.856017,35.149152,2089,금호초교
1402,2274,영락공원입구,Yeongnak Cemetery Park Entrance,126.915189,35.244065,4082,효령동
1403,2201,대지동상촌,Daejidong-sangchon,126.82259167,35.07394722,3025,대촌미곡처리장
1404,3877,지실,Jisil,127.00634701,35.1857799,6434,가사문학관
1405,1988,계소리3구,Gyesori District 3,126.95667778,35.04729722,6337,계소리1구
1406,2077,임곡역,Imgok Station,126.74573611,35.21868889,5378,성내
1407,2140,대야,Daeya,126.67338879,35.13724617,5590,솔밭가든
1408,2183,불암,Buram,126.8364341,35.11070221,2115,절골입구(서)
1409,2226,신용,Sinyong,126.816027,35.096921,2108,마현
1410,2248,만화동,Manhwadong,126.935875,35.29076111,6170,남산마을입구
1411,1819,창평훈련장,Changpyeong Army Training Center,127.02278333,35.24153056,6193,신갈
1412,388,동호,Dongho,126.684469,35.169785,5039,남동
1413,551,광주박물관,Gwangju National Museum,126.883304,35.186455,4200,체육고/폴리텍5대학
1414,2016,가마,Gama ,126.702753,35.171162,5031,북성
1415,1825,고서중,Goseo Middle School,126.97789444,35.22404444,6072,고서면소재지
1416,1684,나주동신대,Naju Dongshin University,126.72032222,35.04896389,6054,싸이클경기장
1417,1700,천동입구,Cheondong Entrance,126.73126111,35.05205556,6068,산정(나주)
1418,2003,능주면사무소,Neungjumyeon Office ,126.95856944,34.99006667,6287,능주초교
1419,2033,비아농협,Bia Nonghyup,126.82489368,35.22200372,5094,비아호반아파트
1420,1726,서부자동차매매단지,Seobu Automobile Dealing Center,126.856128,35.113987,2123,종합유통단지
1421,1533,화순전남대병원,Hwasun Jeonnam University Hospital,127.002129,35.059115,6395,화순전남대병원입구
1422,1577,KT&G광주공장,KT&G Gwangju Factory,126.87431389,35.20145,4078,롯데칠성
1423,285,대성사거리,Daeseong Sageori,126.90289271,35.1431266,5126,까치고개
1424,1518,화순교(동),Hwasungyo(Bridge),126.98936389,35.06040278,6377,화순우체국
1425,2100,평림,Pyeongnim,126.690424,35.16752,5083,애림
1426,3469,포백,Pobaek,126.926036,35.30458,6181,수북
1427,737,풍암한신아파트,Pungam Hanshin Apt.,126.87690432,35.12273815,2268,풍암모아아파트
1428,2669,능주사거리,Neungju 4-Way Junc,126.95798333,34.99201111,6289,능주교
